$GPGSV,3,1,09,02,15,226,,05,64,279,,07,46,050,,09,20,091,*7A
$GPGSV,3,2,09,13,34,286,,15,00,000,,20,17,313,,28,27,149,*7A
$GPGSV,3,3,09,30,80,070,*4C
$GLGSV,2,1,07,68,33,126,33,78,33,033,,70,30,319,,86,05,331,*60
$GLGSV,2,2,07,80,31,208,,79,80,059,,69,81,047,*5D
$GPGSA,A,1,,,,,,,,,,,,,,,*1E
$GPVTG,,T,,M,,N,,K,N*2C
$GPRMC,,V,,,,,,,,,,N*53
$GPGGA,,,,,,0,,,,,,,,*66
$GPGSV,3,1,09,02,15,226,,05,64,279,,07,46,050,,09,20,091,*7A
$GPGSV,3,2,09,13,34,286,,15,00,000,,20,17,313,,28,27,149,*7A
$GPGSV,3,3,09,30,80,070,*4C
$GLGSV,2,1,07,68,33,126,33,78,33,033,,70,30,319,,86,05,331,*60
$GLGSV,2,2,07,80,31,208,,79,80,059,,69,81,047,*5D
$GPGSA,A,1,,,,,,,,,,,,,,,*1E
$GPVTG,,T,,M,,N,,K,N*2C
$GPRMC,,V,,,,,,,,,,N*53
$GPGGA,,,,,,0,,,,,,,,*66
$GPGSV,3,1,09,05,64,279,27,09,20,091,29,28,27,149,29,30,80,070,24*76
$GPGSV,3,2,09,02,15,226,,07,46,050,,13,34,286,,15,00,000,*7C
$GPGSV,3,3,09,20,17,313,*45
$GLGSV,2,1,07,68,33,126,36,78,33,033,,70,30,319,,86,05,331,*65
$GLGSV,2,2,07,80,31,208,,79,80,059,,69,81,047,*5D
$GPGSA,A,1,,,,,,,,,,,,,,,*1E
$GPVTG,,T,,M,,N,,K,N*2C
$GPRMC,,V,,,,,,,,,,N*53
$GPGGA,,,,,,0,,,,,,,,*66
$GPGSA,A,1,,,,,,,,,,,,,,,*1E
$GPVTG,,T,,M,,N,,K,N*2C
$GPRMC,,V,,,,,,,,,,N*53
$GPGGA,,,,,,0,,,,,,,,*66
$GPGSV,3,1,09,05,64,279,27,09,20,091,29,28,27,149,29,30,80,070,24*76
$GPGSV,3,2,09,02,15,226,,07,46,050,,13,34,286,,15,00,000,*7C
$GPGSV,3,3,09,20,17,313,*45
$GLGSV,2,1,07,68,33,126,36,78,33,033,,70,30,319,,86,05,331,*65
$GLGSV,2,2,07,80,31,208,,79,80,059,,69,81,047,*5D
$GPGSA,A,1,,,,,,,,,,,,,,,*1E
$GPVTG,,T,,M,,N,,K,N*2C
$GPRMC,,V,,,,,,,,,,N*53
$GPGGA,,,,,,0,,,,,,,,*66
$GPGSA,A,1,,,,,,,,,,,,,,,*1E
$GPVTG,,T,,M,,N,,K,N*2C
$GPRMC,,V,,,,,,,,,,N*53
$GPGGA,,,,,,0,,,,,,,,*66
$GPGSV,3,1,09,05,64,279,27,09,20,091,29,28,27,149,29,30,80,070,24*76
$GPGSV,3,2,09,02,15,226,,07,46,050,,13,34,286,,15,00,000,*7C
$GPGSV,3,3,09,20,17,313,*45
$GLGSV,2,1,07,68,33,126,36,78,33,033,,70,30,319,,86,05,331,*65
$GLGSV,2,2,07,80,31,208,,79,80,059,,69,81,047,*5D
$GPGSA,A,1,,,,,,,,,,,,,,,*1E
$GPVTG,,T,,M,,N,,K,N*2C
$GPRMC,,V,,,,,,,,,,N*53
$GPGGA,,,,,,0,,,,,,,,*66
$GPGSA,A,1,,,,,,,,,,,,,,,*1E
$GPVTG,,T,,M,,N,,K,N*2C
$GPRMC,,V,,,,,,,,,,N*53
$GPGGA,,,,,,0,,,,,,,,*66
$GPGSV,3,1,09,05,64,279,27,09,20,091,29,28,27,149,29,30,80,070,24*76
$GPGSV,3,2,09,02,15,226,,07,46,050,,13,34,286,,15,00,000,*7C
$GPGSV,3,3,09,20,17,313,*45
$GLGSV,2,1,07,68,33,126,36,78,33,033,,70,30,319,,86,05,331,*65
$GLGSV,2,2,07,80,31,208,,79,80,059,,69,81,047,*5D
$GPGSA,A,1,,,,,,,,,,,,,,,*1E
$GPVTG,,T,,M,,N,,K,N*2C
$GPRMC,,V,,,,,,,,,,N*53
$GPGGA,,,,,,0,,,,,,,,*66
$GPGSA,A,1,,,,,,,,,,,,,,,*1E
$GPVTG,,T,,M,,N,,K,N*2C
$GPRMC,,V,,,,,,,,,,N*53
$GPGGA,,,,,,0,,,,,,,,*66
$GPGSV,3,1,09,02,15,226,20,05,64,279,26,07,46,050,25,09,20,091,33*7B
$GPGSV,3,2,09,13,34,286,20,20,17,313,20,28,27,149,31,30,80,070,28*7A
$GPGSV,3,3,09,15,00,000,*44
$GLGSV,2,1,07,68,32,126,32,78,33,033,,70,30,320,,86,05,331,*6A
$GLGSV,2,2,07,80,31,208,,79,80,059,,69,81,049,*53
$GPGSA,A,1,,,,,,,,,,,,,,,*1E
$GPVTG,,T,,M,,N,,K,N*2C
$GPRMC,,V,,,,,,,,,,N*53
$GPGGA,,,,,,0,,,,,,,,*66
$GPGSV,3,1,09,02,15,226,20,05,64,279,26,07,46,050,25,09,20,091,33*7B
$GPGSV,3,2,09,13,34,286,20,20,17,313,20,28,27,149,31,30,80,070,28*7A
$GPGSV,3,3,09,15,00,000,*44
$GLGSV,2,1,07,68,32,126,32,78,33,033,,70,30,320,,86,05,331,*6A
$GLGSV,2,2,07,80,31,208,,79,80,059,,69,81,049,*53
$GPGSA,A,1,,,,,,,,,,,,,,,*1E
$GPVTG,,T,,M,,N,,K,N*2C
$GPRMC,,V,,,,,,,,,,N*53
$GPGGA,,,,,,0,,,,,,,,*66
$GPGSV,3,1,09,02,15,226,21,05,64,279,21,07,46,050,34,09,20,091,33*7D
$GPGSV,3,2,09,13,34,286,22,20,17,313,19,28,27,149,32,30,80,070,29*70
$GPGSV,3,3,09,15,00,000,*44
$GLGSV,2,1,07,70,30,320,21,68,32,126,34,78,33,033,,86,05,331,*6F
$GLGSV,2,2,07,80,31,208,,79,80,059,,69,81,049,*53
$GPGSA,A,3,05,07,09,28,30,,,,,,,,1.7,1.0,1.4*32
$GPVTG,196.5,T,196.5,M,12.9,N,24.0,K,A*2F
$GPRMC,151939,A,4336.718554,N,00704.696805,E,12.9,196.5,060116,0.4,W,A*35
$GPGGA,151939,4336.718554,N,00704.696805,E,1,05,1.0,118.0,M,49.0,M,,*4A
$GPGSV,3,1,09,02,15,226,21,05,64,279,21,07,46,050,34,09,20,091,33*7D
$GPGSV,3,2,09,13,34,286,22,20,17,313,19,28,27,149,32,30,80,070,29*70
$GPGSV,3,3,09,15,00,000,*44
$GLGSV,2,1,07,70,30,320,21,68,32,126,34,78,33,033,,86,05,331,*6F
$GLGSV,2,2,07,80,31,208,,79,80,059,,69,81,049,*53
$GPGSA,A,3,05,07,09,28,30,,,,,,,,1.7,1.0,1.4*32
$GPVTG,196.5,T,196.5,M,12.9,N,24.0,K,A*2F
$GPRMC,151939,A,4336.718554,N,00704.696805,E,12.9,196.5,060116,0.4,W,A*35
$GPGGA,151939,4336.718554,N,00704.696805,E,1,05,1.0,118.0,M,49.0,M,,*4A
$GPGSA,A,1,,,,,,,,,,,,,0.0,0.0,32.6*07
$GPVTG,3.4,T,3.4,M,52.5,N,97.2,K,D*28
$GPRMC,151940,A,4336.715682,N,00704.695637,E,52.5,3.4,060116,,,D*4E
$GPGGA,151940,4336.715682,N,00704.695637,E,2,00,0.0,,,,,,*7F
$GPGSA,A,1,,,,,,,,,,,,,0.0,0.0,32.6*07
$GPVTG,3.4,T,3.4,M,52.5,N,97.2,K,D*28
$GPRMC,151940,A,4336.715682,N,00704.695637,E,52.5,3.4,060116,,,D*4E
$GPGGA,151940,4336.715682,N,00704.695637,E,2,00,0.0,,,,,,*7F
$GPGSA,A,1,,,,,,,,,,,,,,,*1E
$GPGSA,A,1,,,,,,,,,,,,,,,*1E
$GPVTG,,T,,M,,N,,K,N*2C
$GPVTG,,T,,M,,N,,K,N*2C
$GPRMC,,V,,,,,,,,,,N*53
$GPRMC,,V,,,,,,,,,,N*53
$GPGGA,,,,,,0,,,,,,,,*66
$GPGGA,,,,,,0,,,,,,,,*66
$GPGSA,A,1,,,,,,,,,,,,,,,*1E
$GPGSA,A,1,,,,,,,,,,,,,,,*1E
$GPVTG,,T,,M,,N,,K,N*2C
$GPVTG,,T,,M,,N,,K,N*2C
$GPRMC,,V,,,,,,,,,,N*53
$GPRMC,,V,,,,,,,,,,N*53
$GPGGA,,,,,,0,,,,,,,,*66
$GPGGA,,,,,,0,,,,,,,,*66
$GPGSA,A,1,,,,,,,,,,,,,,,*1E
$GPGSA,A,1,,,,,,,,,,,,,,,*1E
$GPVTG,,T,,M,,N,,K,N*2C
$GPRMC,,V,,,,,,,,,,N*53
$GPGGA,,,,,,0,,,,,,,,*66
$GPVTG,,T,,M,,N,,K,N*2C
$GPRMC,,V,,,,,,,,,,N*53
$GPGGA,,,,,,0,,,,,,,,*66
$GPGSA,A,1,,,,,,,,,,,,,,,*1E
$GPVTG,,T,,M,,N,,K,N*2C
$GPRMC,,V,,,,,,,,,,N*53
$GPGGA,,,,,,0,,,,,,,,*66
$GPGSA,A,1,,,,,,,,,,,,,,,*1E
$GPVTG,,T,,M,,N,,K,N*2C
$GPRMC,,V,,,,,,,,,,N*53
$GPGGA,,,,,,0,,,,,,,,*66
$GPGSV,3,1,09,02,14,226,,05,64,279,,07,46,050,,09,20,091,*7B
$GPGSV,3,2,09,13,34,286,,15,00,000,,20,17,312,,28,28,149,*74
$GPGSV,3,3,09,30,79,068,*43
$GLGSV,2,1,07,68,32,127,30,78,32,033,,70,30,320,,86,05,331,*68
$GLGSV,2,2,07,80,32,208,,79,80,056,,69,81,052,*55
$GPGSA,A,1,,,,,,,,,,,,,,,*1E
$GPVTG,,T,,M,,N,,K,N*2C
$GPRMC,,V,,,,,,,,,,N*53
$GPGGA,,,,,,0,,,,,,,,*66
$GPGSA,A,1,,,,,,,,,,,,,,,*1E
$GPVTG,,T,,M,,N,,K,N*2C
$GPRMC,,V,,,,,,,,,,N*53
$GPGGA,,,,,,0,,,,,,,,*66
$GPGSV,3,1,09,05,64,279,27,07,46,050,33,28,28,149,25,30,79,068,30*77
$GPGSV,3,2,09,02,14,226,,09,20,091,,13,34,286,,15,00,000,*7E
$GPGSV,3,3,09,20,17,312,*44
$GLGSV,2,1,07,78,32,033,27,68,32,127,32,70,30,320,,86,05,331,*6F
$GLGSV,2,2,07,80,32,208,,79,80,056,,69,81,052,*55
$GPGSA,A,1,,,,,,,,,,,,,,,*1E
$GPVTG,,T,,M,,N,,K,N*2C
$GPRMC,,V,,,,,,,,,,N*53
$GPGGA,,,,,,0,,,,,,,,*66
$GPGSA,A,1,,,,,,,,,,,,,,,*1E
$GPVTG,,T,,M,,N,,K,N*2C
$GPRMC,,V,,,,,,,,,,N*53
$GPGGA,,,,,,0,,,,,,,,*66
$GPGSV,3,1,09,02,14,226,,05,64,279,,07,46,050,,09,20,091,*7B
$GPGSV,3,2,09,13,34,286,,15,00,000,,20,17,312,,28,28,149,*74
$GPGSV,3,3,09,30,79,068,*43
$GLGSV,2,1,07,68,32,127,30,78,32,033,,70,30,320,,86,05,331,*68
$GLGSV,2,2,07,80,32,208,,79,80,056,,69,81,052,*55
$GPGSA,A,1,,,,,,,,,,,,,,,*1E
$GPVTG,,T,,M,,N,,K,N*2C
$GPRMC,,V,,,,,,,,,,N*53
$GPGGA,,,,,,0,,,,,,,,*66
$GPGSA,A,1,,,,,,,,,,,,,,,*1E
$GPVTG,,T,,M,,N,,K,N*2C
$GPRMC,,V,,,,,,,,,,N*53
$GPGGA,,,,,,0,,,,,,,,*66
$GPGSV,3,1,09,05,64,279,27,07,46,050,33,28,28,149,25,30,79,068,30*77
$GPGSV,3,2,09,02,14,226,,09,20,091,,13,34,286,,15,00,000,*7E
$GPGSV,3,3,09,20,17,312,*44
$GLGSV,2,1,07,78,32,033,27,68,32,127,32,70,30,320,,86,05,331,*6F
$GLGSV,2,2,07,80,32,208,,79,80,056,,69,81,052,*55
$GPGSA,A,1,,,,,,,,,,,,,,,*1E
$GPVTG,,T,,M,,N,,K,N*2C
$GPRMC,,V,,,,,,,,,,N*53
$GPGGA,,,,,,0,,,,,,,,*66
$GPGSA,A,1,,,,,,,,,,,,,,,*1E
$GPVTG,,T,,M,,N,,K,N*2C
$GPRMC,,V,,,,,,,,,,N*53
$GPGGA,,,,,,0,,,,,,,,*66
$GPGSA,A,1,,,,,,,,,,,,,,,*1E
$GPGSA,A,1,,,,,,,,,,,,,,,*1E
$GPVTG,,T,,M,,N,,K,N*2C
$GPVTG,,T,,M,,N,,K,N*2C
$GPRMC,,V,,,,,,,,,,N*53
$GPRMC,,V,,,,,,,,,,N*53
$GPGGA,,,,,,0,,,,,,,,*66
$GPGGA,,,,,,0,,,,,,,,*66
$GPGSA,A,1,,,,,,,,,,,,,,,*1E
$GPGSA,A,1,,,,,,,,,,,,,,,*1E
$GPVTG,,T,,M,,N,,K,N*2C
$GPVTG,,T,,M,,N,,K,N*2C
$GPRMC,,V,,,,,,,,,,N*53
$GPGGA,,,,,,0,,,,,,,,*66
$GPRMC,,V,,,,,,,,,,N*53
$GPGGA,,,,,,0,,,,,,,,*66
$GPGSA,A,1,,,,,,,,,,,,,,,*1E
$GPGSA,A,1,,,,,,,,,,,,,,,*1E
$GPVTG,,T,,M,,N,,K,N*2C
$GPRMC,,V,,,,,,,,,,N*53
$GPVTG,,T,,M,,N,,K,N*2C
$GPRMC,,V,,,,,,,,,,N*53
$GPGGA,,,,,,0,,,,,,,,*66
$GPGGA,,,,,,0,,,,,,,,*66
$GPGSV,3,1,09,07,46,050,35,02,14,224,,05,64,278,,09,19,091,*74
$GPGSV,3,1,09,07,46,050,35,02,14,224,,05,64,278,,09,19,091,*74
$GPGSV,3,2,09,13,34,286,,15,00,000,,20,17,312,,28,28,149,*74
$GPGSV,3,3,09,30,79,067,*4C
$GLGSV,2,1,07,78,32,033,,70,30,320,,86,05,331,,80,32,208,*63
$GLGSV,2,2,07,79,80,054,,69,81,053,,68,32,127,*5E
$GPGSA,A,1,,,,,,,,,,,,,,,*1E
$GPVTG,,T,,M,,N,,K,N*2C
$GPRMC,,V,,,,,,,,,,N*53
$GPGGA,,,,,,0,,,,,,,,*66
$GPGSA,A,1,,,,,,,,,,,,,,,*1E
$GPVTG,,T,,M,,N,,K,N*2C
$GPRMC,,V,,,,,,,,,,N*53
$GPGGA,,,,,,0,,,,,,,,*66
$GPGSV,3,2,09,13,34,286,,15,00,000,,20,17,312,,28,28,149,*74
$GPGSV,3,3,09,30,79,067,*4C
$GLGSV,2,1,07,78,32,033,,70,30,320,,86,05,331,,80,32,208,*63
$GLGSV,2,2,07,79,80,054,,69,81,053,,68,32,127,*5E
$GPGSA,A,1,,,,,,,,,,,,,,,*1E
$GPVTG,,T,,M,,N,,K,N*2C
$GPRMC,,V,,,,,,,,,,N*53
$GPGGA,,,,,,0,,,,,,,,*66
$GPGSA,A,1,,,,,,,,,,,,,,,*1E
$GPVTG,,T,,M,,N,,K,N*2C
$GPRMC,,V,,,,,,,,,,N*53
$GPGGA,,,,,,0,,,,,,,,*66
$GPGSA,A,1,,,,,,,,,,,,,,,*1E
$GPGSA,A,1,,,,,,,,,,,,,,,*1E
$GPVTG,,T,,M,,N,,K,N*2C
$GPVTG,,T,,M,,N,,K,N*2C
$GPRMC,,V,,,,,,,,,,N*53
$GPRMC,,V,,,,,,,,,,N*53
$GPGGA,,,,,,0,,,,,,,,*66
$GPGGA,,,,,,0,,,,,,,,*66
$GPGSA,A,1,,,,,,,,,,,,,,,*1E
$GPGSA,A,1,,,,,,,,,,,,,,,*1E
$GPVTG,,T,,M,,N,,K,N*2C
$GPVTG,,T,,M,,N,,K,N*2C
$GPRMC,,V,,,,,,,,,,N*53
$GPRMC,,V,,,,,,,,,,N*53
$GPGGA,,,,,,0,,,,,,,,*66
$GPGGA,,,,,,0,,,,,,,,*66
$GPGSA,A,1,,,,,,,,,,,,,,,*1E
$GPGSA,A,1,,,,,,,,,,,,,,,*1E
$GPVTG,,T,,M,,N,,K,N*2C
$GPVTG,,T,,M,,N,,K,N*2C
$GPRMC,,V,,,,,,,,,,N*53
$GPRMC,,V,,,,,,,,,,N*53
$GPGGA,,,,,,0,,,,,,,,*66
$GPGGA,,,,,,0,,,,,,,,*66
$GPGSA,A,1,,,,,,,,,,,,,,,*1E
$GPGSA,A,1,,,,,,,,,,,,,,,*1E
$GPVTG,,T,,M,,N,,K,N*2C
$GPRMC,,V,,,,,,,,,,N*53
$GPGGA,,,,,,0,,,,,,,,*66
$GPVTG,,T,,M,,N,,K,N*2C
$GPRMC,,V,,,,,,,,,,N*53
$GPGGA,,,,,,0,,,,,,,,*66
$GPGSA,A,1,,,,,,,,,,,,,,,*1E
$GPGSA,A,1,,,,,,,,,,,,,,,*1E
$GPVTG,,T,,M,,N,,K,N*2C
$GPVTG,,T,,M,,N,,K,N*2C
$GPRMC,,V,,,,,,,,,,N*53
$GPRMC,,V,,,,,,,,,,N*53
$GPGGA,,,,,,0,,,,,,,,*66
$GPGGA,,,,,,0,,,,,,,,*66
$GPGSA,A,1,,,,,,,,,,,,,,,*1E
$GPGSA,A,1,,,,,,,,,,,,,,,*1E
$GPVTG,,T,,M,,N,,K,N*2C
$GPVTG,,T,,M,,N,,K,N*2C
$GPRMC,,V,,,,,,,,,,N*53
$GPRMC,,V,,,,,,,,,,N*53
$GPGGA,,,,,,0,,,,,,,,*66
$GPGGA,,,,,,0,,,,,,,,*66
$GPGSA,A,1,,,,,,,,,,,,,,,*1E
$GPGSA,A,1,,,,,,,,,,,,,,,*1E
$GPVTG,,T,,M,,N,,K,N*2C
$GPRMC,,V,,,,,,,,,,N*53
$GPVTG,,T,,M,,N,,K,N*2C
$GPRMC,,V,,,,,,,,,,N*53
$GPGGA,,,,,,0,,,,,,,,*66
$GPGGA,,,,,,0,,,,,,,,*66
$GPGSA,A,1,,,,,,,,,,,,,,,*1E
$GPGSA,A,1,,,,,,,,,,,,,,,*1E
$GPVTG,,T,,M,,N,,K,N*2C
$GPRMC,,V,,,,,,,,,,N*53
$GPGGA,,,,,,0,,,,,,,,*66
$GPVTG,,T,,M,,N,,K,N*2C
$GPRMC,,V,,,,,,,,,,N*53
$GPGGA,,,,,,0,,,,,,,,*66
$GPGSA,A,1,,,,,,,,,,,,,,,*1E
$GPGSA,A,1,,,,,,,,,,,,,,,*1E
$GPVTG,,T,,M,,N,,K,N*2C
$GPVTG,,T,,M,,N,,K,N*2C
$GPRMC,,V,,,,,,,,,,N*53
$GPGGA,,,,,,0,,,,,,,,*66
$GPRMC,,V,,,,,,,,,,N*53
$GPGGA,,,,,,0,,,,,,,,*66
$GPGSA,A,1,,,,,,,,,,,,,,,*1E
$GPGSA,A,1,,,,,,,,,,,,,,,*1E
$GPVTG,,T,,M,,N,,K,N*2C
$GPVTG,,T,,M,,N,,K,N*2C
$GPRMC,,V,,,,,,,,,,N*53
$GPRMC,,V,,,,,,,,,,N*53
$GPGGA,,,,,,0,,,,,,,,*66
$GPGGA,,,,,,0,,,,,,,,*66
$GPGSA,A,1,,,,,,,,,,,,,,,*1E
$GPGSA,A,1,,,,,,,,,,,,,,,*1E
$GPVTG,,T,,M,,N,,K,N*2C
$GPVTG,,T,,M,,N,,K,N*2C
$GPRMC,,V,,,,,,,,,,N*53
$GPRMC,,V,,,,,,,,,,N*53
$GPGGA,,,,,,0,,,,,,,,*66
$GPGGA,,,,,,0,,,,,,,,*66
$GPGSA,A,1,,,,,,,,,,,,,,,*1E
$GPGSA,A,1,,,,,,,,,,,,,,,*1E
$GPVTG,,T,,M,,N,,K,N*2C
$GPVTG,,T,,M,,N,,K,N*2C
$GPRMC,,V,,,,,,,,,,N*53
$GPGGA,,,,,,0,,,,,,,,*66
$GPRMC,,V,,,,,,,,,,N*53
$GPGGA,,,,,,0,,,,,,,,*66
$GPGSA,A,1,,,,,,,,,,,,,,,*1E
$GPGSA,A,1,,,,,,,,,,,,,,,*1E
$GPVTG,,T,,M,,N,,K,N*2C
$GPVTG,,T,,M,,N,,K,N*2C
$GPRMC,,V,,,,,,,,,,N*53
$GPRMC,,V,,,,,,,,,,N*53
$GPGGA,,,,,,0,,,,,,,,*66
$GPGGA,,,,,,0,,,,,,,,*66
$GPGSA,A,1,,,,,,,,,,,,,,,*1E
$GPGSA,A,1,,,,,,,,,,,,,,,*1E
$GPVTG,,T,,M,,N,,K,N*2C
$GPRMC,,V,,,,,,,,,,N*53
$GPVTG,,T,,M,,N,,K,N*2C
$GPRMC,,V,,,,,,,,,,N*53
$GPGGA,,,,,,0,,,,,,,,*66
$GPGGA,,,,,,0,,,,,,,,*66
$GPGSV,3,1,09,13,35,288,33,02,13,224,,05,65,275,,07,45,050,*75
$GPGSV,3,1,09,13,35,288,33,02,13,224,,05,65,275,,07,45,050,*75
$GPGSV,3,2,09,09,18,092,,15,01,284,,20,19,312,,28,29,147,*78
$GPGSV,3,3,09,30,78,063,*49
$GLGSV,2,1,08,70,32,320,27,78,30,033,,86,05,330,,80,33,208,*69
$GLGSV,2,2,08,79,78,047,,69,81,067,,87,00,000,,68,30,129,*60
$GPGSA,A,1,,,,,,,,,,,,,,,*1E
$GPGSV,3,2,09,09,18,092,,15,01,284,,20,19,312,,28,29,147,*78
$GPGSV,3,3,09,30,78,063,*49
$GLGSV,2,1,08,70,32,320,27,78,30,033,,86,05,330,,80,33,208,*69
$GLGSV,2,2,08,79,78,047,,69,81,067,,87,00,000,,68,30,129,*60
$GPGSA,A,1,,,,,,,,,,,,,,,*1E
$GPVTG,,T,,M,,N,,K,N*2C
$GPRMC,,V,,,,,,,,,,N*53
$GPGGA,,,,,,0,,,,,,,,*66
$GPGSA,A,1,,,,,,,,,,,,,,,*1E
$GPVTG,,T,,M,,N,,K,N*2C
$GPRMC,,V,,,,,,,,,,N*53
$GPGGA,,,,,,0,,,,,,,,*66
$GPVTG,,T,,M,,N,,K,N*2C
$GPRMC,,V,,,,,,,,,,N*53
$GPGGA,,,,,,0,,,,,,,,*66
$GPGSA,A,1,,,,,,,,,,,,,,,*1E
$GPVTG,,T,,M,,N,,K,N*2C
$GPRMC,,V,,,,,,,,,,N*53
$GPGGA,,,,,,0,,,,,,,,*66
$GPGSA,A,1,,,,,,,,,,,,,,,*1E
$GPGSA,A,1,,,,,,,,,,,,,,,*1E
$GPVTG,,T,,M,,N,,K,N*2C
$GPVTG,,T,,M,,N,,K,N*2C
$GPRMC,,V,,,,,,,,,,N*53
$GPRMC,,V,,,,,,,,,,N*53
$GPGGA,,,,,,0,,,,,,,,*66
$GPGGA,,,,,,0,,,,,,,,*66
$GPGSA,A,1,,,,,,,,,,,,,,,*1E
$GPGSA,A,1,,,,,,,,,,,,,,,*1E
$GPVTG,,T,,M,,N,,K,N*2C
$GPVTG,,T,,M,,N,,K,N*2C
$GPRMC,,V,,,,,,,,,,N*53
$GPRMC,,V,,,,,,,,,,N*53
$GPGGA,,,,,,0,,,,,,,,*66
$GPGGA,,,,,,0,,,,,,,,*66
$GPGSV,3,1,09,02,13,224,,05,65,274,,07,45,050,,09,18,092,*79
$GPGSV,3,1,09,02,13,224,,05,65,274,,07,45,050,,09,18,092,*79
$GPGSV,3,2,09,13,36,288,,15,01,284,,20,19,312,,28,30,147,*7E
$GPGSV,3,2,09,13,36,288,,15,01,284,,20,19,312,,28,30,147,*7E
$GPGSV,3,3,09,30,78,061,*4B
$GPGSV,3,3,09,30,78,061,*4B
$GLGSV,2,1,08,78,30,033,,70,32,320,,86,04,329,,80,34,209,*63
$GLGSV,2,1,08,78,30,033,,70,32,320,,86,04,329,,80,34,209,*63
$GLGSV,2,2,08,79,78,047,,69,81,070,,87,00,000,,68,30,129,*66
$GLGSV,2,2,08,79,78,047,,69,81,070,,87,00,000,,68,30,129,*66
$GPGSA,A,1,,,,,,,,,,,,,,,*1E
$GPGSA,A,1,,,,,,,,,,,,,,,*1E
$GPVTG,,T,,M,,N,,K,N*2C
$GPVTG,,T,,M,,N,,K,N*2C
$GPRMC,,V,,,,,,,,,,N*53
$GPRMC,,V,,,,,,,,,,N*53
$GPGGA,,,,,,0,,,,,,,,*66
$GPGGA,,,,,,0,,,,,,,,*66
$GPGSA,A,1,,,,,,,,,,,,,,,*1E
$GPGSA,A,1,,,,,,,,,,,,,,,*1E
$GPVTG,,T,,M,,N,,K,N*2C
$GPVTG,,T,,M,,N,,K,N*2C
$GPRMC,,V,,,,,,,,,,N*53
$GPRMC,,V,,,,,,,,,,N*53
$GPGGA,,,,,,0,,,,,,,,*66
$GPGGA,,,,,,0,,,,,,,,*66
$GPGSV,3,1,09,02,13,224,,05,65,274,,07,45,050,,09,18,092,*79
$GPGSV,3,1,09,02,13,224,,05,65,274,,07,45,050,,09,18,092,*79
$GPGSV,3,2,09,13,36,288,,15,01,284,,20,19,312,,28,30,147,*7E
$GPGSV,3,3,09,30,78,061,*4B
$GLGSV,2,1,08,78,30,033,,70,32,320,,86,04,329,,80,34,209,*63
$GLGSV,2,2,08,79,78,047,,69,81,070,,87,00,000,,68,30,129,*66
$GPGSV,3,2,09,13,36,288,,15,01,284,,20,19,312,,28,30,147,*7E
$GPGSV,3,3,09,30,78,061,*4B
$GLGSV,2,1,08,78,30,033,,70,32,320,,86,04,329,,80,34,209,*63
$GLGSV,2,2,08,79,78,047,,69,81,070,,87,00,000,,68,30,129,*66
$GPGSA,A,1,,,,,,,,,,,,,,,*1E
$GPVTG,,T,,M,,N,,K,N*2C
$GPRMC,,V,,,,,,,,,,N*53
$GPGGA,,,,,,0,,,,,,,,*66
$GPGSA,A,1,,,,,,,,,,,,,,,*1E
$GPVTG,,T,,M,,N,,K,N*2C
$GPRMC,,V,,,,,,,,,,N*53
$GPGGA,,,,,,0,,,,,,,,*66
$GPGSA,A,1,,,,,,,,,,,,,,,*1E
$GPVTG,,T,,M,,N,,K,N*2C
$GPRMC,,V,,,,,,,,,,N*53
$GPGGA,,,,,,0,,,,,,,,*66
$GPGSA,A,1,,,,,,,,,,,,,,,*1E
$GPVTG,,T,,M,,N,,K,N*2C
$GPRMC,,V,,,,,,,,,,N*53
$GPGGA,,,,,,0,,,,,,,,*66
$GPGSV,3,1,09,05,65,274,23,02,13,224,,07,45,050,,09,18,092,*78
$GPGSV,3,1,09,05,65,274,23,02,13,224,,07,45,050,,09,18,092,*78
$GPGSV,3,2,09,13,36,288,,15,01,284,,20,19,312,,28,30,147,*7E
$GPGSV,3,3,09,30,78,061,*4B
$GPGSV,3,2,09,13,36,288,,15,01,284,,20,19,312,,28,30,147,*7E
$GPGSV,3,3,09,30,78,061,*4B
$GLGSV,2,1,08,79,78,047,21,78,30,033,,70,32,320,,86,04,329,*66
$GLGSV,2,2,08,80,34,209,,69,81,070,,87,00,000,,68,30,129,*60
$GPGSA,A,1,,,,,,,,,,,,,,,*1E
$GPVTG,,T,,M,,N,,K,N*2C
$GPRMC,,V,,,,,,,,,,N*53
$GPGGA,,,,,,0,,,,,,,,*66
$GPGSA,A,1,,,,,,,,,,,,,,,*1E
$GPVTG,,T,,M,,N,,K,N*2C
$GPRMC,,V,,,,,,,,,,N*53
$GPGGA,,,,,,0,,,,,,,,*66
$GLGSV,2,1,08,79,78,047,21,78,30,033,,70,32,320,,86,04,329,*66
$GLGSV,2,2,08,80,34,209,,69,81,070,,87,00,000,,68,30,129,*60
$GPGSA,A,1,,,,,,,,,,,,,,,*1E
$GPVTG,,T,,M,,N,,K,N*2C
$GPRMC,,V,,,,,,,,,,N*53
$GPGGA,,,,,,0,,,,,,,,*66
$GPGSA,A,1,,,,,,,,,,,,,,,*1E
$GPVTG,,T,,M,,N,,K,N*2C
$GPRMC,,V,,,,,,,,,,N*53
$GPGGA,,,,,,0,,,,,,,,*66
$GPGSV,3,1,09,05,65,274,21,02,13,224,,07,45,050,,09,18,092,*7A
$GPGSV,3,1,09,05,65,274,21,02,13,224,,07,45,050,,09,18,092,*7A
$GPGSV,3,2,09,13,36,288,,15,01,284,,20,19,312,,28,30,147,*7E
$GPGSV,3,3,09,30,78,061,*4B
$GLGSV,2,1,08,79,78,047,20,78,30,033,,70,32,320,,86,04,329,*67
$GLGSV,2,2,08,80,34,209,,69,81,070,,87,00,000,,68,30,129,*60
$GPGSV,3,2,09,13,36,288,,15,01,284,,20,19,312,,28,30,147,*7E
$GPGSV,3,3,09,30,78,061,*4B
$GLGSV,2,1,08,79,78,047,20,78,30,033,,70,32,320,,86,04,329,*67
$GLGSV,2,2,08,80,34,209,,69,81,070,,87,00,000,,68,30,129,*60
$GPGSA,A,1,,,,,,,,,,,,,,,*1E
$GPVTG,,T,,M,,N,,K,N*2C
$GPRMC,,V,,,,,,,,,,N*53
$GPGGA,,,,,,0,,,,,,,,*66
$GPGSA,A,1,,,,,,,,,,,,,,,*1E
$GPVTG,,T,,M,,N,,K,N*2C
$GPRMC,,V,,,,,,,,,,N*53
$GPGGA,,,,,,0,,,,,,,,*66
$GPGSA,A,1,,,,,,,,,,,,,,,*1E
$GPVTG,,T,,M,,N,,K,N*2C
$GPRMC,,V,,,,,,,,,,N*53
$GPGGA,,,,,,0,,,,,,,,*66
$GPGSA,A,1,,,,,,,,,,,,,,,*1E
$GPVTG,,T,,M,,N,,K,N*2C
$GPRMC,,V,,,,,,,,,,N*53
$GPGGA,,,,,,0,,,,,,,,*66
$GPGSA,A,1,,,,,,,,,,,,,,,*1E
$GPGSA,A,1,,,,,,,,,,,,,,,*1E
$GPVTG,,T,,M,,N,,K,N*2C
$GPRMC,,V,,,,,,,,,,N*53
$GPGGA,,,,,,0,,,,,,,,*66
$GPVTG,,T,,M,,N,,K,N*2C
$GPRMC,,V,,,,,,,,,,N*53
$GPGGA,,,,,,0,,,,,,,,*66
$GPGSA,A,1,,,,,,,,,,,,,,,*1E
$GPGSA,A,1,,,,,,,,,,,,,,,*1E
$GPVTG,,T,,M,,N,,K,N*2C
$GPVTG,,T,,M,,N,,K,N*2C
$GPRMC,,V,,,,,,,,,,N*53
$GPRMC,,V,,,,,,,,,,N*53
$GPGGA,,,,,,0,,,,,,,,*66
$GPGGA,,,,,,0,,,,,,,,*66
$GPGSV,3,1,09,02,13,224,,05,65,274,,07,45,050,,09,18,092,*79
$GPGSV,3,1,09,02,13,224,,05,65,274,,07,45,050,,09,18,092,*79
$GPGSV,3,2,09,13,36,288,,15,01,284,,20,19,312,,28,30,147,*7E
$GPGSV,3,2,09,13,36,288,,15,01,284,,20,19,312,,28,30,147,*7E
$GPGSV,3,3,09,30,77,061,*44
$GPGSV,3,3,09,30,77,061,*44
$GLGSV,2,1,08,78,30,033,,70,32,320,,86,04,329,,80,34,209,*63
$GLGSV,2,1,08,78,30,033,,70,32,320,,86,04,329,,80,34,209,*63
$GLGSV,2,2,08,79,78,046,,69,81,071,,87,00,000,,68,30,129,*66
$GLGSV,2,2,08,79,78,046,,69,81,071,,87,00,000,,68,30,129,*66
$GPGSA,A,1,,,,,,,,,,,,,,,*1E
$GPVTG,,T,,M,,N,,K,N*2C
$GPRMC,,V,,,,,,,,,,N*53
$GPGGA,,,,,,0,,,,,,,,*66
$GPGSA,A,1,,,,,,,,,,,,,,,*1E
$GPGSA,A,1,,,,,,,,,,,,,,,*1E
$GPVTG,,T,,M,,N,,K,N*2C
$GPRMC,,V,,,,,,,,,,N*53
$GPGGA,,,,,,0,,,,,,,,*66
$GPGSA,A,1,,,,,,,,,,,,,,,*1E
$GPVTG,,T,,M,,N,,K,N*2C
$GPRMC,,V,,,,,,,,,,N*53
$GPGGA,,,,,,0,,,,,,,,*66
$GPVTG,,T,,M,,N,,K,N*2C
$GPRMC,,V,,,,,,,,,,N*53
$GPGGA,,,,,,0,,,,,,,,*66
$GPGSV,3,1,09,02,13,224,,05,65,274,,07,45,050,,09,18,092,*79
$GPGSV,3,1,09,02,13,224,,05,65,274,,07,45,050,,09,18,092,*79
$GPGSV,3,2,09,13,36,288,,15,01,284,,20,19,312,,28,30,147,*7E
$GPGSV,3,3,09,30,77,061,*44
$GLGSV,2,1,08,70,32,320,30,78,30,033,,86,04,329,,80,34,209,*60
$GLGSV,2,2,08,79,78,046,,69,81,071,,87,00,000,,68,30,129,*66
$GPGSA,A,1,,,,,,,,,,,,,,,*1E
$GPVTG,,T,,M,,N,,K,N*2C
$GPRMC,,V,,,,,,,,,,N*53
$GPGGA,,,,,,0,,,,,,,,*66
$GPGSV,3,2,09,13,36,288,,15,01,284,,20,19,312,,28,30,147,*7E
$GPGSV,3,3,09,30,77,061,*44
$GLGSV,2,1,08,70,32,320,30,78,30,033,,86,04,329,,80,34,209,*60
$GLGSV,2,2,08,79,78,046,,69,81,071,,87,00,000,,68,30,129,*66
$GPGSA,A,1,,,,,,,,,,,,,,,*1E
$GPVTG,,T,,M,,N,,K,N*2C
$GPRMC,,V,,,,,,,,,,N*53
$GPGGA,,,,,,0,,,,,,,,*66
$GPGSV,3,1,09,13,36,288,32,20,19,312,27,02,13,224,,05,65,274,*7A
$GPGSV,3,1,09,13,36,288,32,20,19,312,27,02,13,224,,05,65,274,*7A
$GPGSV,3,2,09,07,45,050,,09,18,092,,15,01,284,,28,30,147,*79
$GPGSV,3,2,09,07,45,050,,09,18,092,,15,01,284,,28,30,147,*79
$GPGSV,3,3,09,30,78,061,*4B
$GPGSV,3,3,09,30,78,061,*4B
$GLGSV,2,1,08,70,32,320,30,78,30,033,,86,04,329,,80,34,209,*60
$GLGSV,2,1,08,70,32,320,30,78,30,033,,86,04,329,,80,34,209,*60
$GLGSV,2,2,08,79,78,046,,69,81,071,,87,00,000,,68,30,129,*66
$GLGSV,2,2,08,79,78,046,,69,81,071,,87,00,000,,68,30,129,*66
$GPGSA,A,1,,,,,,,,,,,,,,,*1E
$GPGSA,A,1,,,,,,,,,,,,,,,*1E
$GPVTG,,T,,M,,N,,K,N*2C
$GPVTG,,T,,M,,N,,K,N*2C
$GPRMC,,V,,,,,,,,,,N*53
$GPRMC,,V,,,,,,,,,,N*53
$GPGGA,,,,,,0,,,,,,,,*66
$GPGGA,,,,,,0,,,,,,,,*66
$GPGSV,3,1,09,13,36,288,34,20,19,312,20,02,13,224,,05,65,274,*7B
$GPGSV,3,1,09,13,36,288,34,20,19,312,20,02,13,224,,05,65,274,*7B
$GPGSV,3,2,09,07,45,050,,09,18,092,,15,01,284,,28,30,147,*79
$GPGSV,3,2,09,07,45,050,,09,18,092,,15,01,284,,28,30,147,*79
$GPGSV,3,3,09,30,78,061,*4B
$GPGSV,3,3,09,30,78,061,*4B
$GLGSV,2,1,08,70,32,320,30,78,30,033,,86,04,329,,80,34,209,*60
$GLGSV,2,1,08,70,32,320,30,78,30,033,,86,04,329,,80,34,209,*60
$GLGSV,2,2,08,79,78,046,,69,81,071,,87,00,000,,68,30,129,*66
$GLGSV,2,2,08,79,78,046,,69,81,071,,87,00,000,,68,30,129,*66
$GPGSV,3,1,09,02,13,224,22,13,36,288,33,20,19,312,21,05,65,274,*7D
$GPGSV,3,1,09,02,13,224,22,13,36,288,33,20,19,312,21,05,65,274,*7D
$GPGSV,3,2,09,07,45,050,,09,18,092,,15,01,284,,28,30,147,*79
$GPGSV,3,3,09,30,78,061,*4B
$GLGSV,2,1,08,70,32,320,28,68,30,129,27,78,30,033,,86,04,329,*6F
$GLGSV,2,2,08,80,34,209,,79,78,046,,69,81,071,,87,00,000,*65
$GPGSA,A,1,,,,,,,,,,,,,,,*1E
$GPVTG,,T,,M,,N,,K,N*2C
$GPGSV,3,2,09,07,45,050,,09,18,092,,15,01,284,,28,30,147,*79
$GPGSV,3,3,09,30,78,061,*4B
$GLGSV,2,1,08,70,32,320,28,68,30,129,27,78,30,033,,86,04,329,*6F
$GLGSV,2,2,08,80,34,209,,79,78,046,,69,81,071,,87,00,000,*65
$GPGSA,A,1,,,,,,,,,,,,,,,*1E
$GPVTG,,T,,M,,N,,K,N*2C
$GPRMC,,V,,,,,,,,,,N*53
$GPGGA,,,,,,0,,,,,,,,*66
$GPRMC,,V,,,,,,,,,,N*53
$GPGGA,,,,,,0,,,,,,,,*66
$GPGSV,3,1,09,02,13,224,22,13,36,288,33,20,19,312,21,05,65,274,*7D
$GPGSV,3,1,09,02,13,224,22,13,36,288,33,20,19,312,21,05,65,274,*7D
$GPGSV,3,2,09,07,45,050,,09,18,092,,15,01,284,,28,30,147,*79
$GPGSV,3,3,09,30,78,061,*4B
$GLGSV,2,1,08,70,32,320,28,68,30,129,27,78,30,033,,86,04,329,*6F
$GPGSV,3,2,09,07,45,050,,09,18,092,,15,01,284,,28,30,147,*79
$GPGSV,3,3,09,30,78,061,*4B
$GLGSV,2,1,08,70,32,320,28,68,30,129,27,78,30,033,,86,04,329,*6F
$GLGSV,2,2,08,80,34,209,,79,78,046,,69,81,071,,87,00,000,*65
$GPGSA,A,1,,,,,,,,,,,,,,,*1E
$GPVTG,,T,,M,,N,,K,N*2C
$GPRMC,,V,,,,,,,,,,N*53
$GPGGA,,,,,,0,,,,,,,,*66
$GLGSV,2,2,08,80,34,209,,79,78,046,,69,81,071,,87,00,000,*65
$GPGSA,A,1,,,,,,,,,,,,,,,*1E
$GPVTG,,T,,M,,N,,K,N*2C
$GPRMC,,V,,,,,,,,,,N*53
$GPGGA,,,,,,0,,,,,,,,*66
$GPGSV,3,1,09,02,13,224,20,07,45,050,19,13,36,288,32,20,19,312,26*75
$GPGSV,3,1,09,02,13,224,20,07,45,050,19,13,36,288,32,20,19,312,26*75
$GPGSV,3,2,09,05,65,274,,09,18,092,,15,01,284,,28,30,147,*7D
$GPGSV,3,3,09,30,78,061,*4B
$GLGSV,2,1,08,70,32,320,28,68,30,129,24,78,30,033,,86,04,329,*6C
$GPGSV,3,2,09,05,65,274,,09,18,092,,15,01,284,,28,30,147,*7D
$GPGSV,3,3,09,30,78,061,*4B
$GLGSV,2,1,08,70,32,320,28,68,30,129,24,78,30,033,,86,04,329,*6C
$GLGSV,2,2,08,80,34,209,,79,78,046,,69,81,071,,87,00,000,*65
$GPGSA,A,1,,,,,,,,,,,,,,,*1E
$GPVTG,,T,,M,,N,,K,N*2C
$GPRMC,,V,,,,,,,,,,N*53
$GPGGA,,,,,,0,,,,,,,,*66
$GLGSV,2,2,08,80,34,209,,79,78,046,,69,81,071,,87,00,000,*65
$GPGSA,A,1,,,,,,,,,,,,,,,*1E
$GPVTG,,T,,M,,N,,K,N*2C
$GPRMC,,V,,,,,,,,,,N*53
$GPGGA,,,,,,0,,,,,,,,*66
$GPGSV,3,1,09,02,13,224,20,05,65,274,17,07,45,050,18,09,18,092,17*72
$GPGSV,3,1,09,02,13,224,20,05,65,274,17,07,45,050,18,09,18,092,17*72
$GPGSV,3,2,09,13,36,288,31,20,19,312,28,28,30,147,20,15,01,284,*74
$GPGSV,3,3,09,30,78,061,*4B
$GLGSV,2,1,08,70,33,320,27,80,34,209,17,79,78,046,17,68,30,129,24*6B
$GLGSV,2,2,08,78,30,033,,86,04,329,,69,81,071,,87,00,000,*6C
$GPGSA,A,1,,,,,,,,,,,,,,,*1E
$GPVTG,,T,,M,,N,,K,N*2C
$GPGSV,3,2,09,13,36,288,31,20,19,312,28,28,30,147,20,15,01,284,*74
$GPGSV,3,3,09,30,78,061,*4B
$GLGSV,2,1,08,70,33,320,27,80,34,209,17,79,78,046,17,68,30,129,24*6B
$GLGSV,2,2,08,78,30,033,,86,04,329,,69,81,071,,87,00,000,*6C
$GPGSA,A,1,,,,,,,,,,,,,,,*1E
$GPVTG,,T,,M,,N,,K,N*2C
$GPRMC,,V,,,,,,,,,,N*53
$GPGGA,,,,,,0,,,,,,,,*66
$GPRMC,,V,,,,,,,,,,N*53
$GPGGA,,,,,,0,,,,,,,,*66
$GPGSV,3,1,09,02,13,224,22,05,65,274,18,07,45,050,18,09,18,092,19*71
$GPGSV,3,1,09,02,13,224,22,05,65,274,18,07,45,050,18,09,18,092,19*71
$GPGSV,3,2,09,13,36,288,33,20,19,312,25,28,30,147,22,15,01,284,*79
$GPGSV,3,2,09,13,36,288,33,20,19,312,25,28,30,147,22,15,01,284,*79
$GPGSV,3,3,09,30,78,061,*4B
$GPGSV,3,3,09,30,78,061,*4B
$GLGSV,2,1,08,70,33,320,29,80,34,209,17,79,78,046,17,68,30,129,23*62
$GLGSV,2,1,08,70,33,320,29,80,34,209,17,79,78,046,17,68,30,129,23*62
$GLGSV,2,2,08,78,30,033,,86,04,329,,69,81,071,,87,00,000,*6C
$GLGSV,2,2,08,78,30,033,,86,04,329,,69,81,071,,87,00,000,*6C
$GPGSA,A,1,,,,,,,,,,,,,,,*1E
$GPGSA,A,1,,,,,,,,,,,,,,,*1E
$GPVTG,,T,,M,,N,,K,N*2C
$GPVTG,,T,,M,,N,,K,N*2C
$GPRMC,,V,,,,,,,,,,N*53
$GPRMC,,V,,,,,,,,,,N*53
$GPGGA,,,,,,0,,,,,,,,*66
$GPGGA,,,,,,0,,,,,,,,*66
$GPGSV,3,1,09,02,13,224,24,05,65,274,18,07,45,050,18,09,18,092,19*77
$GPGSV,3,2,09,13,36,288,34,20,19,312,22,28,30,147,22,15,01,284,*79
$GPGSV,3,3,09,30,78,061,*4B
$GLGSV,2,1,08,70,33,320,31,80,34,209,17,79,78,046,17,68,30,129,23*6B
$GLGSV,2,2,08,78,30,033,,86,04,329,,69,81,071,,87,00,000,*6C
$GPGSA,A,3,02,07,13,20,28,,,,,,,,1.8,0.9,1.5*39
$GPVTG,22.4,T,22.4,M,53.4,N,98.9,K,A*29
$GPRMC,152520,A,4336.996727,N,00706.917623,E,53.4,22.4,060116,0.4,W,A*05
$GPGGA,152520,4336.996727,N,00706.917623,E,1,05,0.9,29.0,M,49.0,M,,*76
$GPGSV,3,1,09,02,13,224,24,05,65,274,18,07,45,050,18,09,18,092,19*77
$GPGSV,3,2,09,13,36,288,34,20,19,312,22,28,30,147,22,15,01,284,*79
$GPGSV,3,3,09,30,78,061,*4B
$GLGSV,2,1,08,70,33,320,31,80,34,209,17,79,78,046,17,68,30,129,23*6B
$GLGSV,2,2,08,78,30,033,,86,04,329,,69,81,071,,87,00,000,*6C
$GPGSA,A,3,02,07,13,20,28,,,,,,,,1.8,0.9,1.5*39
$GPVTG,22.4,T,22.4,M,53.4,N,98.9,K,A*29
$GPRMC,152520,A,4336.996727,N,00706.917623,E,53.4,22.4,060116,0.4,W,A*05
$GPGGA,152520,4336.996727,N,00706.917623,E,1,05,0.9,29.0,M,49.0,M,,*76
$GPGSA,A,1,,,,,,,,,,,,,,,*1E
$GPGSA,A,1,,,,,,,,,,,,,,,*1E
$GPVTG,,T,,M,,N,,K,N*2C
$GPVTG,,T,,M,,N,,K,N*2C
$GPRMC,,V,,,,,,,,,,N*53
$GPRMC,,V,,,,,,,,,,N*53
$GPGGA,,,,,,0,,,,,,,,*66
$GPGGA,,,,,,0,,,,,,,,*66
$GPGSA,A,1,,,,,,,,,,,,,,,*1E
$GPGSA,A,1,,,,,,,,,,,,,,,*1E
$GPVTG,,T,,M,,N,,K,N*2C
$GPVTG,,T,,M,,N,,K,N*2C
$GPRMC,,V,,,,,,,,,,N*53
$GPGGA,,,,,,0,,,,,,,,*66
$GPRMC,,V,,,,,,,,,,N*53
$GPGGA,,,,,,0,,,,,,,,*66
$GPGSV,3,1,09,13,36,288,35,02,13,223,,05,65,274,,07,45,050,*76
$GPGSV,3,1,09,13,36,288,35,02,13,223,,05,65,274,,07,45,050,*76
$GPGSV,3,2,09,09,18,092,,15,01,284,,20,19,312,,28,30,147,*70
$GPGSV,3,2,09,09,18,092,,15,01,284,,20,19,312,,28,30,147,*70
$GPGSV,3,3,09,30,77,061,*44
$GPGSV,3,3,09,30,77,061,*44
$GLGSV,2,1,08,70,33,320,30,78,30,033,,86,04,329,,80,34,209,*61
$GLGSV,2,1,08,70,33,320,30,78,30,033,,86,04,329,,80,34,209,*61
$GLGSV,2,2,08,79,78,046,,69,81,073,,87,00,000,,68,30,129,*64
$GLGSV,2,2,08,79,78,046,,69,81,073,,87,00,000,,68,30,129,*64
$GPGSA,A,1,,,,,,,,,,,,,,,*1E
$GPGSA,A,1,,,,,,,,,,,,,,,*1E
$GPVTG,,T,,M,,N,,K,N*2C
$GPVTG,,T,,M,,N,,K,N*2C
$GPRMC,,V,,,,,,,,,,N*53
$GPRMC,,V,,,,,,,,,,N*53
$GPGGA,,,,,,0,,,,,,,,*66
$GPGGA,,,,,,0,,,,,,,,*66
$GPGSA,A,1,,,,,,,,,,,,,,,*1E
$GPVTG,,T,,M,,N,,K,N*2C
$GPRMC,,V,,,,,,,,,,N*53
$GPGSA,A,1,,,,,,,,,,,,,,,*1E
$GPVTG,,T,,M,,N,,K,N*2C
$GPRMC,,V,,,,,,,,,,N*53
$GPGGA,,,,,,0,,,,,,,,*66
$GPGGA,,,,,,0,,,,,,,,*66
$GPGSV,3,1,09,02,13,223,26,13,36,288,35,20,19,312,25,30,77,061,23*7E
$GPGSV,3,2,09,05,65,274,,07,45,050,,09,18,092,,15,01,284,*75
$GPGSV,3,3,09,28,30,147,*4B
$GLGSV,2,1,08,70,33,320,29,80,34,209,27,78,30,033,,86,04,329,*6C
$GLGSV,2,2,08,79,78,046,,69,81,073,,87,00,000,,68,30,129,*64
$GPGSA,A,1,,,,,,,,,,,,,,,*1E
$GPVTG,,T,,M,,N,,K,N*2C
$GPGSV,3,1,09,02,13,223,26,13,36,288,35,20,19,312,25,30,77,061,23*7E
$GPGSV,3,2,09,05,65,274,,07,45,050,,09,18,092,,15,01,284,*75
$GPGSV,3,3,09,28,30,147,*4B
$GLGSV,2,1,08,70,33,320,29,80,34,209,27,78,30,033,,86,04,329,*6C
$GLGSV,2,2,08,79,78,046,,69,81,073,,87,00,000,,68,30,129,*64
$GPGSA,A,1,,,,,,,,,,,,,,,*1E
$GPVTG,,T,,M,,N,,K,N*2C
$GPRMC,,V,,,,,,,,,,N*53
$GPGGA,,,,,,0,,,,,,,,*66
$GPRMC,,V,,,,,,,,,,N*53
$GPGGA,,,,,,0,,,,,,,,*66
$GPGSA,A,1,,,,,,,,,,,,,,,*1E
$GPGSA,A,1,,,,,,,,,,,,,,,*1E
$GPVTG,,T,,M,,N,,K,N*2C
$GPVTG,,T,,M,,N,,K,N*2C
$GPRMC,,V,,,,,,,,,,N*53
$GPRMC,,V,,,,,,,,,,N*53
$GPGGA,,,,,,0,,,,,,,,*66
$GPGGA,,,,,,0,,,,,,,,*66
$GPGSA,A,1,,,,,,,,,,,,,,,*1E
$GPGSA,A,1,,,,,,,,,,,,,,,*1E
$GPVTG,,T,,M,,N,,K,N*2C
$GPVTG,,T,,M,,N,,K,N*2C
$GPRMC,,V,,,,,,,,,,N*53
$GPRMC,,V,,,,,,,,,,N*53
$GPGGA,,,,,,0,,,,,,,,*66
$GPGGA,,,,,,0,,,,,,,,*66
$GPGSV,3,1,09,13,36,288,31,02,13,223,,05,65,274,,07,45,050,*72
$GPGSV,3,1,09,13,36,288,31,02,13,223,,05,65,274,,07,45,050,*72
$GPGSV,3,2,09,09,18,092,,15,01,284,,20,19,312,,28,30,147,*70
$GPGSV,3,2,09,09,18,092,,15,01,284,,20,19,312,,28,30,147,*70
$GPGSV,3,3,09,30,77,061,*44
$GPGSV,3,3,09,30,77,061,*44
$GLGSV,2,1,08,78,30,033,,70,33,320,,86,04,329,,80,35,209,*63
$GLGSV,2,1,08,78,30,033,,70,33,320,,86,04,329,,80,35,209,*63
$GLGSV,2,2,08,79,77,046,,69,81,073,,87,00,000,,68,30,129,*6B
$GLGSV,2,2,08,79,77,046,,69,81,073,,87,00,000,,68,30,129,*6B
$GPGSA,A,1,,,,,,,,,,,,,,,*1E
$GPGSA,A,1,,,,,,,,,,,,,,,*1E
$GPVTG,,T,,M,,N,,K,N*2C
$GPRMC,,V,,,,,,,,,,N*53
$GPGGA,,,,,,0,,,,,,,,*66
$GPGSA,A,1,,,,,,,,,,,,,,,*1E
$GPVTG,,T,,M,,N,,K,N*2C
$GPRMC,,V,,,,,,,,,,N*53
$GPGGA,,,,,,0,,,,,,,,*66
$GPVTG,,T,,M,,N,,K,N*2C
$GPRMC,,V,,,,,,,,,,N*53
$GPGGA,,,,,,0,,,,,,,,*66
$GPGSA,A,1,,,,,,,,,,,,,,,*1E
$GPVTG,,T,,M,,N,,K,N*2C
$GPRMC,,V,,,,,,,,,,N*53
$GPGGA,,,,,,0,,,,,,,,*66
$GPGSV,3,1,09,05,65,274,24,13,36,288,34,02,13,223,,07,45,050,*71
$GPGSV,3,1,09,05,65,274,24,13,36,288,34,02,13,223,,07,45,050,*71
$GPGSV,3,2,09,09,18,092,,15,01,284,,20,19,312,,28,30,147,*70
$GPGSV,3,3,09,30,77,061,*44
$GLGSV,2,1,08,80,35,209,24,78,30,033,,70,33,320,,86,04,329,*65
$GLGSV,2,2,08,79,77,046,,69,81,073,,87,00,000,,68,30,129,*6B
$GPGSV,3,2,09,09,18,092,,15,01,284,,20,19,312,,28,30,147,*70
$GPGSV,3,3,09,30,77,061,*44
$GLGSV,2,1,08,80,35,209,24,78,30,033,,70,33,320,,86,04,329,*65
$GLGSV,2,2,08,79,77,046,,69,81,073,,87,00,000,,68,30,129,*6B
$GPGSA,A,1,,,,,,,,,,,,,,,*1E
$GPVTG,,T,,M,,N,,K,N*2C
$GPRMC,,V,,,,,,,,,,N*53
$GPGGA,,,,,,0,,,,,,,,*66
$GPGSA,A,1,,,,,,,,,,,,,,,*1E
$GPVTG,,T,,M,,N,,K,N*2C
$GPRMC,,V,,,,,,,,,,N*53
$GPGGA,,,,,,0,,,,,,,,*66
$GPGSV,3,1,09,02,13,223,22,05,65,274,26,09,18,092,18,13,36,288,33*75
$GPGSV,3,1,09,02,13,223,22,05,65,274,26,09,18,092,18,13,36,288,33*75
$GPGSV,3,2,09,20,19,312,22,07,45,050,,15,01,284,,28,30,147,*78
$GPGSV,3,3,09,30,77,061,*44
$GLGSV,2,1,08,70,33,320,29,80,35,209,26,78,30,033,,86,04,329,*6C
$GPGSV,3,2,09,20,19,312,22,07,45,050,,15,01,284,,28,30,147,*78
$GPGSV,3,3,09,30,77,061,*44
$GLGSV,2,1,08,70,33,320,29,80,35,209,26,78,30,033,,86,04,329,*6C
$GLGSV,2,2,08,79,77,046,,69,81,073,,87,00,000,,68,30,129,*6B
$GPGSA,A,1,,,,,,,,,,,,,,,*1E
$GPVTG,,T,,M,,N,,K,N*2C
$GPRMC,,V,,,,,,,,,,N*53
$GPGGA,,,,,,0,,,,,,,,*66
$GLGSV,2,2,08,79,77,046,,69,81,073,,87,00,000,,68,30,129,*6B
$GPGSA,A,1,,,,,,,,,,,,,,,*1E
$GPVTG,,T,,M,,N,,K,N*2C
$GPRMC,,V,,,,,,,,,,N*53
$GPGGA,,,,,,0,,,,,,,,*66
$GPGSA,A,1,,,,,,,,,,,,,,,*1E
$GPGSA,A,1,,,,,,,,,,,,,,,*1E
$GPVTG,,T,,M,,N,,K,N*2C
$GPVTG,,T,,M,,N,,K,N*2C
$GPRMC,,V,,,,,,,,,,N*53
$GPRMC,,V,,,,,,,,,,N*53
$GPGGA,,,,,,0,,,,,,,,*66
$GPGGA,,,,,,0,,,,,,,,*66
$GPGSA,A,1,,,,,,,,,,,,,,,*1E
$GPGSA,A,1,,,,,,,,,,,,,,,*1E
$GPVTG,,T,,M,,N,,K,N*2C
$GPVTG,,T,,M,,N,,K,N*2C
$GPRMC,,V,,,,,,,,,,N*53
$GPRMC,,V,,,,,,,,,,N*53
$GPGGA,,,,,,0,,,,,,,,*66
$GPGGA,,,,,,0,,,,,,,,*66
$GPGSV,3,1,09,02,12,223,,05,65,274,,07,45,050,,09,18,094,*79
$GPGSV,3,1,09,02,12,223,,05,65,274,,07,45,050,,09,18,094,*79
$GPGSV,3,2,09,13,36,288,,15,01,285,,20,19,312,,28,30,147,*7F
$GPGSV,3,2,09,13,36,288,,15,01,285,,20,19,312,,28,30,147,*7F
$GPGSV,3,3,09,30,77,060,*45
$GPGSV,3,3,09,30,77,060,*45
$GLGSV,2,1,08,78,29,033,,70,33,320,,86,04,329,,80,35,209,*6B
$GLGSV,2,2,08,79,77,046,,69,81,074,,87,00,000,,68,30,129,*6C
$GPGSA,A,1,,,,,,,,,,,,,,,*1E
$GPVTG,,T,,M,,N,,K,N*2C
$GPRMC,,V,,,,,,,,,,N*53
$GPGGA,,,,,,0,,,,,,,,*66
$GLGSV,2,1,08,78,29,033,,70,33,320,,86,04,329,,80,35,209,*6B
$GLGSV,2,2,08,79,77,046,,69,81,074,,87,00,000,,68,30,129,*6C
$GPGSA,A,1,,,,,,,,,,,,,,,*1E
$GPVTG,,T,,M,,N,,K,N*2C
$GPRMC,,V,,,,,,,,,,N*53
$GPGGA,,,,,,0,,,,,,,,*66
$GPGSA,A,1,,,,,,,,,,,,,,,*1E
$GPVTG,,T,,M,,N,,K,N*2C
$GPRMC,,V,,,,,,,,,,N*53
$GPGGA,,,,,,0,,,,,,,,*66
$GPGSA,A,1,,,,,,,,,,,,,,,*1E
$GPVTG,,T,,M,,N,,K,N*2C
$GPRMC,,V,,,,,,,,,,N*53
$GPGGA,,,,,,0,,,,,,,,*66
$GPGSV,3,1,09,13,36,288,33,20,19,312,23,02,12,223,,05,65,274,*79
$GPGSV,3,2,09,07,45,050,,09,18,094,,15,01,285,,28,30,147,*7E
$GPGSV,3,1,09,13,36,288,33,20,19,312,23,02,12,223,,05,65,274,*79
$GPGSV,3,2,09,07,45,050,,09,18,094,,15,01,285,,28,30,147,*7E
$GPGSV,3,3,09,30,77,060,*45
$GLGSV,2,1,08,70,33,320,29,78,29,033,,86,04,329,,80,35,209,*60
$GLGSV,2,2,08,79,77,046,,69,81,074,,87,00,000,,68,30,129,*6C
$GPGSA,A,1,,,,,,,,,,,,,,,*1E
$GPVTG,,T,,M,,N,,K,N*2C
$GPRMC,,V,,,,,,,,,,N*53
$GPGGA,,,,,,0,,,,,,,,*66
$GPGSV,3,3,09,30,77,060,*45
$GLGSV,2,1,08,70,33,320,29,78,29,033,,86,04,329,,80,35,209,*60
$GLGSV,2,2,08,79,77,046,,69,81,074,,87,00,000,,68,30,129,*6C
$GPGSA,A,1,,,,,,,,,,,,,,,*1E
$GPVTG,,T,,M,,N,,K,N*2C
$GPRMC,,V,,,,,,,,,,N*53
$GPGGA,,,,,,0,,,,,,,,*66
$GPGSV,3,1,09,02,12,223,20,05,65,274,24,13,36,288,32,20,19,312,23*7C
$GPGSV,3,2,09,07,45,050,,09,18,094,,15,01,285,,28,30,147,*7E
$GPGSV,3,3,09,30,77,060,*45
$GLGSV,2,1,08,70,33,320,29,80,35,209,26,78,29,033,,86,04,329,*64
$GLGSV,2,2,08,79,77,046,,69,81,074,,87,00,000,,68,30,129,*6C
$GPGSA,A,1,,,,,,,,,,,,,,,*1E
$GPVTG,,T,,M,,N,,K,N*2C
$GPRMC,,V,,,,,,,,,,N*53
$GPGGA,,,,,,0,,,,,,,,*66
$GPGSV,3,1,09,02,12,223,20,05,65,274,24,13,36,288,32,20,19,312,23*7C
$GPGSV,3,2,09,07,45,050,,09,18,094,,15,01,285,,28,30,147,*7E
$GPGSV,3,3,09,30,77,060,*45
$GLGSV,2,1,08,70,33,320,29,80,35,209,26,78,29,033,,86,04,329,*64
$GLGSV,2,2,08,79,77,046,,69,81,074,,87,00,000,,68,30,129,*6C
$GPGSA,A,1,,,,,,,,,,,,,,,*1E
$GPVTG,,T,,M,,N,,K,N*2C
$GPRMC,,V,,,,,,,,,,N*53
$GPGGA,,,,,,0,,,,,,,,*66
$GPGSA,A,1,,,,,,,,,,,,,,,*1E
$GPGSA,A,1,,,,,,,,,,,,,,,*1E
$GPVTG,,T,,M,,N,,K,N*2C
$GPRMC,,V,,,,,,,,,,N*53
$GPGGA,,,,,,0,,,,,,,,*66
$GPVTG,,T,,M,,N,,K,N*2C
$GPRMC,,V,,,,,,,,,,N*53
$GPGGA,,,,,,0,,,,,,,,*66
$GPGSA,A,1,,,,,,,,,,,,,,,*1E
$GPGSA,A,1,,,,,,,,,,,,,,,*1E
$GPVTG,,T,,M,,N,,K,N*2C
$GPRMC,,V,,,,,,,,,,N*53
$GPVTG,,T,,M,,N,,K,N*2C
$GPRMC,,V,,,,,,,,,,N*53
$GPGGA,,,,,,0,,,,,,,,*66
$GPGGA,,,,,,0,,,,,,,,*66
$GPGSA,A,1,,,,,,,,,,,,,,,*1E
$GPVTG,,T,,M,,N,,K,N*2C
$GPRMC,,V,,,,,,,,,,N*53
$GPGGA,,,,,,0,,,,,,,,*66
$GPGSA,A,1,,,,,,,,,,,,,,,*1E
$GPVTG,,T,,M,,N,,K,N*2C
$GPRMC,,V,,,,,,,,,,N*53
$GPGGA,,,,,,0,,,,,,,,*66
$GPGSV,3,1,09,02,12,223,,05,65,272,,07,45,050,,09,18,094,*7F
$GPGSV,3,1,09,02,12,223,,05,65,272,,07,45,050,,09,18,094,*7F
$GPGSV,3,2,09,13,36,288,,15,01,285,,20,19,312,,28,30,147,*7F
$GPGSV,3,2,09,13,36,288,,15,01,285,,20,19,312,,28,30,147,*7F
$GPGSV,3,3,09,30,77,060,*45
$GPGSV,3,3,09,30,77,060,*45
$GLGSV,2,1,08,70,33,320,31,78,29,033,,86,04,329,,80,35,209,*69
$GLGSV,2,1,08,70,33,320,31,78,29,033,,86,04,329,,80,35,209,*69
$GLGSV,2,2,08,79,77,045,,69,81,075,,87,00,000,,68,29,129,*66
$GLGSV,2,2,08,79,77,045,,69,81,075,,87,00,000,,68,29,129,*66
$GPGSA,A,1,,,,,,,,,,,,,,,*1E
$GPGSA,A,1,,,,,,,,,,,,,,,*1E
$GPVTG,,T,,M,,N,,K,N*2C
$GPRMC,,V,,,,,,,,,,N*53
$GPVTG,,T,,M,,N,,K,N*2C
$GPRMC,,V,,,,,,,,,,N*53
$GPGGA,,,,,,0,,,,,,,,*66
$GPGSA,A,1,,,,,,,,,,,,,,,*1E
$GPVTG,,T,,M,,N,,K,N*2C
$GPRMC,,V,,,,,,,,,,N*53
$GPGGA,,,,,,0,,,,,,,,*66
$GPGGA,,,,,,0,,,,,,,,*66
$GPGSA,A,1,,,,,,,,,,,,,,,*1E
$GPVTG,,T,,M,,N,,K,N*2C
$GPRMC,,V,,,,,,,,,,N*53
$GPGGA,,,,,,0,,,,,,,,*66
$GPGSV,3,1,09,13,36,288,27,28,30,147,24,02,12,223,,05,65,272,*7C
$GPGSV,3,1,09,13,36,288,27,28,30,147,24,02,12,223,,05,65,272,*7C
$GPGSV,3,2,09,07,45,050,,09,18,094,,15,01,285,,20,19,312,*7F
$GPGSV,3,3,09,30,77,060,*45
$GLGSV,2,1,08,70,33,320,31,78,29,033,,86,04,329,,80,35,209,*69
$GPGSV,3,2,09,07,45,050,,09,18,094,,15,01,285,,20,19,312,*7F
$GPGSV,3,3,09,30,77,060,*45
$GLGSV,2,1,08,70,33,320,31,78,29,033,,86,04,329,,80,35,209,*69
$GLGSV,2,2,08,79,77,045,,69,81,075,,87,00,000,,68,29,129,*66
$GPGSA,A,1,,,,,,,,,,,,,,,*1E
$GPVTG,,T,,M,,N,,K,N*2C
$GPRMC,,V,,,,,,,,,,N*53
$GPGGA,,,,,,0,,,,,,,,*66
$GPGSA,A,1,,,,,,,,,,,,,,,*1E
$GPVTG,,T,,M,,N,,K,N*2C
$GPRMC,,V,,,,,,,,,,N*53
$GPGGA,,,,,,0,,,,,,,,*66
$GLGSV,2,2,08,79,77,045,,69,81,075,,87,00,000,,68,29,129,*66
$GPGSA,A,1,,,,,,,,,,,,,,,*1E
$GPVTG,,T,,M,,N,,K,N*2C
$GPRMC,,V,,,,,,,,,,N*53
$GPGGA,,,,,,0,,,,,,,,*66
$GPGSA,A,1,,,,,,,,,,,,,,,*1E
$GPVTG,,T,,M,,N,,K,N*2C
$GPRMC,,V,,,,,,,,,,N*53
$GPGGA,,,,,,0,,,,,,,,*66
$GPGSV,3,1,09,13,36,288,21,20,19,312,20,28,30,147,22,30,77,060,21*71
$GPGSV,3,2,09,02,12,223,,05,65,272,,07,45,050,,09,18,094,*7C
$GPGSV,3,3,09,15,01,285,*4A
$GLGSV,2,1,08,70,33,320,24,78,29,033,,86,04,329,,80,35,209,*6D
$GLGSV,2,2,08,79,77,045,,69,81,075,,87,00,000,,68,29,129,*66
$GPGSA,A,1,,,,,,,,,,,,,,,*1E
$GPVTG,,T,,M,,N,,K,N*2C
$GPRMC,,V,,,,,,,,,,N*53
$GPGGA,,,,,,0,,,,,,,,*66
$GPGSV,3,1,09,13,36,288,21,20,19,312,20,28,30,147,22,30,77,060,21*71
$GPGSV,3,2,09,02,12,223,,05,65,272,,07,45,050,,09,18,094,*7C
$GPGSV,3,3,09,15,01,285,*4A
$GLGSV,2,1,08,70,33,320,24,78,29,033,,86,04,329,,80,35,209,*6D
$GLGSV,2,2,08,79,77,045,,69,81,075,,87,00,000,,68,29,129,*66
$GPGSA,A,1,,,,,,,,,,,,,,,*1E
$GPVTG,,T,,M,,N,,K,N*2C
$GPRMC,,V,,,,,,,,,,N*53
$GPGGA,,,,,,0,,,,,,,,*66
$GPGSV,3,1,09,13,36,288,21,20,19,312,20,28,30,147,22,30,77,060,21*71
$GPGSV,3,1,09,13,36,288,21,20,19,312,20,28,30,147,22,30,77,060,21*71
$GPGSV,3,2,09,02,12,223,,05,65,272,,07,45,050,,09,18,094,*7C
$GPGSV,3,2,09,02,12,223,,05,65,272,,07,45,050,,09,18,094,*7C
$GPGSV,3,3,09,15,01,285,*4A
$GLGSV,2,1,08,70,33,320,24,78,29,033,,86,04,329,,80,35,209,*6D
$GLGSV,2,2,08,79,77,045,,69,81,075,,87,00,000,,68,29,129,*66
$GPGSA,A,1,,,,,,,,,,,,,,,*1E
$GPGSV,3,3,09,15,01,285,*4A
$GLGSV,2,1,08,70,33,320,24,78,29,033,,86,04,329,,80,35,209,*6D
$GLGSV,2,2,08,79,77,045,,69,81,075,,87,00,000,,68,29,129,*66
$GPGSA,A,1,,,,,,,,,,,,,,,*1E
$GPVTG,,T,,M,,N,,K,N*2C
$GPRMC,,V,,,,,,,,,,N*53
$GPGGA,,,,,,0,,,,,,,,*66
$GPVTG,,T,,M,,N,,K,N*2C
$GPRMC,,V,,,,,,,,,,N*53
$GPGGA,,,,,,0,,,,,,,,*66
$GPGSV,3,1,09,05,65,272,19,13,36,288,26,20,19,312,21,28,30,147,18*71
$GPGSV,3,1,09,05,65,272,19,13,36,288,26,20,19,312,21,28,30,147,18*71
$GPGSV,3,2,09,30,77,060,20,02,12,223,,07,45,050,,09,18,094,*7A
$GPGSV,3,3,09,15,01,285,*4A
$GPGSV,3,2,09,30,77,060,20,02,12,223,,07,45,050,,09,18,094,*7A
$GPGSV,3,3,09,15,01,285,*4A
$GLGSV,2,1,08,70,33,320,24,78,29,033,,86,04,329,,80,35,209,*6D
$GLGSV,2,2,08,79,77,045,,69,81,075,,87,00,000,,68,29,129,*66
$GPGSA,A,1,,,,,,,,,,,,,,,*1E
$GPVTG,,T,,M,,N,,K,N*2C
$GPRMC,,V,,,,,,,,,,N*53
$GPGGA,,,,,,0,,,,,,,,*66
$GLGSV,2,1,08,70,33,320,24,78,29,033,,86,04,329,,80,35,209,*6D
$GLGSV,2,2,08,79,77,045,,69,81,075,,87,00,000,,68,29,129,*66
$GPGSA,A,1,,,,,,,,,,,,,,,*1E
$GPVTG,,T,,M,,N,,K,N*2C
$GPRMC,,V,,,,,,,,,,N*53
$GPGGA,,,,,,0,,,,,,,,*66
$GPGSV,3,1,09,05,65,272,19,07,45,050,21,13,36,288,25,20,19,312,22*73
$GPGSV,3,2,09,28,30,147,17,30,77,060,19,02,12,223,,09,18,094,*7E
$GPGSV,3,3,09,15,01,285,*4A
$GLGSV,2,1,08,70,33,320,20,78,29,033,,86,04,329,,80,35,209,*69
$GPGSV,3,1,09,05,65,272,19,07,45,050,21,13,36,288,25,20,19,312,22*73
$GPGSV,3,2,09,28,30,147,17,30,77,060,19,02,12,223,,09,18,094,*7E
$GPGSV,3,3,09,15,01,285,*4A
$GLGSV,2,1,08,70,33,320,20,78,29,033,,86,04,329,,80,35,209,*69
$GLGSV,2,2,08,79,77,045,,69,81,075,,87,00,000,,68,29,129,*66
$GPGSA,A,1,,,,,,,,,,,,,,,*1E
$GPVTG,,T,,M,,N,,K,N*2C
$GPRMC,,V,,,,,,,,,,N*53
$GPGGA,,,,,,0,,,,,,,,*66
$GLGSV,2,2,08,79,77,045,,69,81,075,,87,00,000,,68,29,129,*66
$GPGSA,A,1,,,,,,,,,,,,,,,*1E
$GPVTG,,T,,M,,N,,K,N*2C
$GPRMC,,V,,,,,,,,,,N*53
$GPGGA,,,,,,0,,,,,,,,*66
$GPGSV,3,1,09,05,65,272,19,07,45,050,27,13,36,288,27,20,19,312,22*77
$GPGSV,3,1,09,05,65,272,19,07,45,050,27,13,36,288,27,20,19,312,22*77
$GPGSV,3,2,09,28,30,147,26,30,77,060,19,02,12,223,,09,18,094,*7C
$GPGSV,3,3,09,15,01,285,*4A
$GLGSV,2,1,08,70,33,320,29,78,29,033,,86,04,329,,80,35,209,*60
$GLGSV,2,2,08,79,77,045,,69,81,075,,87,00,000,,68,29,129,*66
$GPGSA,A,1,,,,,,,,,,,,,,,*1E
$GPVTG,,T,,M,,N,,K,N*2C
$GPRMC,,V,,,,,,,,,,N*53
$GPGSV,3,2,09,28,30,147,26,30,77,060,19,02,12,223,,09,18,094,*7C
$GPGSV,3,3,09,15,01,285,*4A
$GLGSV,2,1,08,70,33,320,29,78,29,033,,86,04,329,,80,35,209,*60
$GLGSV,2,2,08,79,77,045,,69,81,075,,87,00,000,,68,29,129,*66
$GPGSA,A,1,,,,,,,,,,,,,,,*1E
$GPVTG,,T,,M,,N,,K,N*2C
$GPRMC,,V,,,,,,,,,,N*53
$GPGGA,,,,,,0,,,,,,,,*66
$GPGGA,,,,,,0,,,,,,,,*66
$GPGSV,3,1,09,05,65,272,18,07,45,050,27,13,36,288,27,20,19,312,21*75
$GPGSV,3,1,09,05,65,272,18,07,45,050,27,13,36,288,27,20,19,312,21*75
$GPGSV,3,2,09,28,30,147,26,30,77,060,19,02,12,223,,09,18,094,*7C
$GPGSV,3,2,09,28,30,147,26,30,77,060,19,02,12,223,,09,18,094,*7C
$GPGSV,3,3,09,15,01,285,*4A
$GLGSV,2,1,08,70,33,320,31,80,35,209,21,68,29,129,23,78,29,033,*66
$GLGSV,2,2,08,86,04,329,,79,77,045,,69,81,075,,87,00,000,*6B
$GPGSA,A,1,,,,,,,,,,,,,,,*1E
$GPVTG,,T,,M,,N,,K,N*2C
$GPGSV,3,3,09,15,01,285,*4A
$GLGSV,2,1,08,70,33,320,31,80,35,209,21,68,29,129,23,78,29,033,*66
$GLGSV,2,2,08,86,04,329,,79,77,045,,69,81,075,,87,00,000,*6B
$GPGSA,A,1,,,,,,,,,,,,,,,*1E
$GPVTG,,T,,M,,N,,K,N*2C
$GPRMC,,V,,,,,,,,,,N*53
$GPGGA,,,,,,0,,,,,,,,*66
$GPRMC,,V,,,,,,,,,,N*53
$GPGGA,,,,,,0,,,,,,,,*66
$GPGSV,3,1,09,02,12,223,14,05,65,272,17,07,45,050,26,13,36,288,27*75
$GPGSV,3,1,09,02,12,223,14,05,65,272,17,07,45,050,26,13,36,288,27*75
$GPGSV,3,2,09,20,19,312,21,28,30,147,24,30,77,060,18,09,18,094,*74
$GPGSV,3,2,09,20,19,312,21,28,30,147,24,30,77,060,18,09,18,094,*74
$GPGSV,3,3,09,15,01,285,*4A
$GPGSV,3,3,09,15,01,285,*4A
$GLGSV,2,1,08,70,33,320,31,80,35,209,21,68,29,129,20,78,29,033,*65
$GLGSV,2,2,08,86,04,329,,79,77,045,,69,81,077,,87,00,000,*69
$GPGSA,A,3,02,05,07,13,20,28,30,,,,,,1.3,0.9,0.9*39
$GPVTG,69.3,T,69.3,M,52.7,N,97.5,K,A*28
$GPRMC,152629,A,4337.915975,N,00707.271073,E,52.7,69.3,060116,0.4,W,A*0F
$GLGSV,2,1,08,70,33,320,31,80,35,209,21,68,29,129,20,78,29,033,*65
$GLGSV,2,2,08,86,04,329,,79,77,045,,69,81,077,,87,00,000,*69
$GPGSA,A,3,02,05,07,13,20,28,30,,,,,,1.3,0.9,0.9*39
$GPVTG,69.3,T,69.3,M,52.7,N,97.5,K,A*28
$GPRMC,152629,A,4337.915975,N,00707.271073,E,52.7,69.3,060116,0.4,W,A*0F
$GPGGA,152629,4337.915975,N,00707.271073,E,1,07,0.9,8.0,M,49.0,M,,*47
$GPGGA,152629,4337.915975,N,00707.271073,E,1,07,0.9,8.0,M,49.0,M,,*47
$GPGSV,3,1,09,02,12,223,15,05,65,272,17,07,45,050,28,13,36,288,27*7A
$GPGSV,3,1,09,02,12,223,15,05,65,272,17,07,45,050,28,13,36,288,27*7A
$GPGSV,3,2,09,20,19,312,17,28,30,147,25,30,77,060,18,09,18,094,*70
$GPGSV,3,2,09,20,19,312,17,28,30,147,25,30,77,060,18,09,18,094,*70
$GPGSV,3,3,09,15,01,285,*4A
$GPGSV,3,3,09,15,01,285,*4A
$GLGSV,2,1,08,70,33,320,29,80,35,209,20,79,77,045,15,68,29,129,19*68
$GLGSV,2,1,08,70,33,320,29,80,35,209,20,79,77,045,15,68,29,129,19*68
$GLGSV,2,2,08,78,29,033,,86,04,329,,69,81,077,,87,00,000,*62
$GLGSV,2,2,08,78,29,033,,86,04,329,,69,81,077,,87,00,000,*62
$GPGSA,A,3,02,05,07,13,20,28,30,,,,,,1.2,0.9,0.8*39
$GPVTG,69.3,T,69.3,M,52.6,N,97.5,K,A*29
$GPRMC,152630,A,4337.921303,N,00707.288619,E,52.6,69.3,060116,0.4,W,A*06
$GPGGA,152630,4337.921303,N,00707.288619,E,1,07,0.9,33.0,M,49.0,M,,*77
$GPGSA,A,3,02,05,07,13,20,28,30,,,,,,1.2,0.9,0.8*39
$GPVTG,69.3,T,69.3,M,52.6,N,97.5,K,A*29
$GPRMC,152630,A,4337.921303,N,00707.288619,E,52.6,69.3,060116,0.4,W,A*06
$GPGGA,152630,4337.921303,N,00707.288619,E,1,07,0.9,33.0,M,49.0,M,,*77
$GPGSV,3,1,09,02,12,223,15,05,65,272,16,07,45,050,27,13,36,288,28*7B
$GPGSV,3,1,09,02,12,223,15,05,65,272,16,07,45,050,27,13,36,288,28*7B
$GPGSV,3,2,09,20,19,312,21,28,30,147,24,30,77,060,18,09,18,094,*74
$GPGSV,3,3,09,15,01,285,*4A
$GLGSV,2,1,08,70,33,320,29,80,35,209,19,79,77,045,16,68,29,129,18*60
$GLGSV,2,2,08,78,29,033,,86,04,329,,69,81,077,,87,00,000,*62
$GPGSA,A,3,02,05,07,13,20,28,30,,,,,,1.2,0.9,0.8*39
$GPVTG,69.3,T,69.3,M,52.5,N,97.3,K,A*2C
$GPRMC,152631,A,4337.927823,N,00707.307825,E,52.5,69.3,060116,0.4,W,A*0C
$GPGGA,152631,4337.927823,N,00707.307825,E,1,07,0.9,7.0,M,49.0,M,,*49
$GPGSV,3,2,09,20,19,312,21,28,30,147,24,30,77,060,18,09,18,094,*74
$GPGSV,3,3,09,15,01,285,*4A
$GLGSV,2,1,08,70,33,320,29,80,35,209,19,79,77,045,16,68,29,129,18*60
$GLGSV,2,2,08,78,29,033,,86,04,329,,69,81,077,,87,00,000,*62
$GPGSA,A,3,02,05,07,13,20,28,30,,,,,,1.2,0.9,0.8*39
$GPVTG,69.3,T,69.3,M,52.5,N,97.3,K,A*2C
$GPRMC,152631,A,4337.927823,N,00707.307825,E,52.5,69.3,060116,0.4,W,A*0C
$GPGGA,152631,4337.927823,N,00707.307825,E,1,07,0.9,7.0,M,49.0,M,,*49
$GPGSA,A,1,,,,,,,,,,,,,,,*1E
$GPGSA,A,1,,,,,,,,,,,,,,,*1E
$GPVTG,,T,,M,,N,,K,N*2C
$GPVTG,,T,,M,,N,,K,N*2C
$GPRMC,,V,,,,,,,,,,N*53
$GPRMC,,V,,,,,,,,,,N*53
$GPGGA,,,,,,0,,,,,,,,*66
$GPGGA,,,,,,0,,,,,,,,*66
$GPGSA,A,1,,,,,,,,,,,,,,,*1E
$GPGSA,A,1,,,,,,,,,,,,,,,*1E
$GPVTG,,T,,M,,N,,K,N*2C
$GPVTG,,T,,M,,N,,K,N*2C
$GPRMC,,V,,,,,,,,,,N*53
$GPGGA,,,,,,0,,,,,,,,*66
$GPRMC,,V,,,,,,,,,,N*53
$GPGGA,,,,,,0,,,,,,,,*66
$GPGSA,A,1,,,,,,,,,,,,,,,*1E
$GPGSA,A,1,,,,,,,,,,,,,,,*1E
$GPVTG,,T,,M,,N,,K,N*2C
$GPRMC,,V,,,,,,,,,,N*53
$GPGGA,,,,,,0,,,,,,,,*66
$GPVTG,,T,,M,,N,,K,N*2C
$GPRMC,,V,,,,,,,,,,N*53
$GPGGA,,,,,,0,,,,,,,,*66
$GPGSV,3,1,09,02,12,223,20,09,18,094,23,13,36,288,31,28,30,147,25*75
$GPGSV,3,1,09,02,12,223,20,09,18,094,23,13,36,288,31,28,30,147,25*75
$GPGSV,3,2,09,30,77,060,22,05,65,272,,07,43,050,,15,02,285,*79
$GPGSV,3,2,09,30,77,060,22,05,65,272,,07,43,050,,15,02,285,*79
$GPGSV,3,3,09,20,20,312,*40
$GPGSV,3,3,09,20,20,312,*40
$GLGSV,2,1,08,70,33,320,37,78,29,033,,86,04,329,,80,35,209,*6F
$GLGSV,2,1,08,70,33,320,37,78,29,033,,86,04,329,,80,35,209,*6F
$GLGSV,2,2,08,79,77,045,,69,81,077,,87,00,000,,68,29,129,*64
$GLGSV,2,2,08,79,77,045,,69,81,077,,87,00,000,,68,29,129,*64
$GPGSA,A,1,,,,,,,,,,,,,,,*1E
$GPGSA,A,1,,,,,,,,,,,,,,,*1E
$GPVTG,,T,,M,,N,,K,N*2C
$GPVTG,,T,,M,,N,,K,N*2C
$GPRMC,,V,,,,,,,,,,N*53
$GPRMC,,V,,,,,,,,,,N*53
$GPGGA,,,,,,0,,,,,,,,*66
$GPGGA,,,,,,0,,,,,,,,*66
$GPGSV,3,1,09,02,12,223,20,09,18,094,23,13,36,288,31,28,30,147,25*75
$GPGSV,3,1,09,02,12,223,20,09,18,094,23,13,36,288,31,28,30,147,25*75
$GPGSV,3,2,09,30,77,060,22,05,65,272,,07,43,050,,15,02,285,*79
$GPGSV,3,2,09,30,77,060,22,05,65,272,,07,43,050,,15,02,285,*79
$GPGSV,3,3,09,20,20,312,*40
$GPGSV,3,3,09,20,20,312,*40
$GLGSV,2,1,08,70,33,320,37,78,29,033,,86,04,329,,80,35,209,*6F
$GLGSV,2,1,08,70,33,320,37,78,29,033,,86,04,329,,80,35,209,*6F
$GLGSV,2,2,08,79,77,045,,69,81,077,,87,00,000,,68,29,129,*64
$GLGSV,2,2,08,79,77,045,,69,81,077,,87,00,000,,68,29,129,*64
$GPGSA,A,1,,,,,,,,,,,,,,,*1E
$GPGSA,A,1,,,,,,,,,,,,,,,*1E
$GPVTG,,T,,M,,N,,K,N*2C
$GPVTG,,T,,M,,N,,K,N*2C
$GPRMC,,V,,,,,,,,,,N*53
$GPGGA,,,,,,0,,,,,,,,*66
$GPRMC,,V,,,,,,,,,,N*53
$GPGGA,,,,,,0,,,,,,,,*66
$GPGSV,3,1,09,02,12,223,19,09,17,094,19,13,36,288,31,20,20,312,19*7D
$GPGSV,3,2,09,28,30,147,27,30,77,060,22,05,65,272,,07,43,050,*7E
$GPGSV,3,3,09,15,02,285,*49
$GLGSV,2,1,08,70,33,320,36,69,81,077,16,68,29,129,17,78,29,033,*61
$GLGSV,2,2,08,86,04,329,,80,35,209,,79,77,045,,87,00,000,*6A
$GPGSA,A,3,02,09,13,20,28,30,,,,,,,1.7,1.4,0.9*3A
$GPVTG,49.7,T,49.7,M,47.6,N,88.1,K,A*27
$GPRMC,152644,A,4338.012338,N,00707.510116,E,47.6,49.7,060116,0.4,W,A*07
$GPGGA,152644,4338.012338,N,00707.510116,E,1,06,1.4,38.0,M,49.0,M,,*72
$GPGSV,3,1,09,02,12,223,19,09,17,094,19,13,36,288,31,20,20,312,19*7D
$GPGSV,3,2,09,28,30,147,27,30,77,060,22,05,65,272,,07,43,050,*7E
$GPGSV,3,3,09,15,02,285,*49
$GLGSV,2,1,08,70,33,320,36,69,81,077,16,68,29,129,17,78,29,033,*61
$GLGSV,2,2,08,86,04,329,,80,35,209,,79,77,045,,87,00,000,*6A
$GPGSA,A,3,02,09,13,20,28,30,,,,,,,1.7,1.4,0.9*3A
$GPVTG,49.7,T,49.7,M,47.6,N,88.1,K,A*27
$GPRMC,152644,A,4338.012338,N,00707.510116,E,47.6,49.7,060116,0.4,W,A*07
$GPGGA,152644,4338.012338,N,00707.510116,E,1,06,1.4,38.0,M,49.0,M,,*72
$GPGSA,A,1,,,,,,,,,,,,,,,*1E
$GPGSA,A,1,,,,,,,,,,,,,,,*1E
$GPVTG,0.9,T,0.9,M,190.5,N,352.8,K,D*27
$GPVTG,0.9,T,0.9,M,190.5,N,352.8,K,D*27
$GPRMC,152650,A,4338.069290,N,00707.602413,E,190.5,0.9,060116,,,D*7E
$GPRMC,152650,A,4338.069290,N,00707.602413,E,190.5,0.9,060116,,,D*7E
$GPGGA,152650,4338.069290,N,00707.602413,E,2,00,,288.0,M,-200.7,M,,*7A
$GPGGA,152650,4338.069290,N,00707.602413,E,2,00,,288.0,M,-200.7,M,,*7A
$GPGSA,A,1,,,,,,,,,,,,,,,*1E
$GPGSA,A,1,,,,,,,,,,,,,,,*1E
$GPVTG,,T,,M,,N,,K,N*2C
$GPVTG,,T,,M,,N,,K,N*2C
$GPRMC,,V,,,,,,,,,,N*53
$GPRMC,,V,,,,,,,,,,N*53
$GPGGA,,,,,,0,,,,,,,,*66
$GPGGA,,,,,,0,,,,,,,,*66
$GPGSA,A,1,,,,,,,,,,,,,,,*1E
$GPGSA,A,1,,,,,,,,,,,,,,,*1E
$GPVTG,,T,,M,,N,,K,N*2C
$GPVTG,,T,,M,,N,,K,N*2C
$GPRMC,,V,,,,,,,,,,N*53
$GPRMC,,V,,,,,,,,,,N*53
$GPGGA,,,,,,0,,,,,,,,*66
$GPGGA,,,,,,0,,,,,,,,*66
$GPGSV,3,1,09,13,36,288,32,02,12,223,,05,65,272,,07,43,050,*70
$GPGSV,3,2,09,09,17,094,,15,02,285,,20,20,312,,28,30,147,*71
$GPGSV,3,1,09,13,36,288,32,02,12,223,,05,65,272,,07,43,050,*70
$GPGSV,3,2,09,09,17,094,,15,02,285,,20,20,312,,28,30,147,*71
$GPGSV,3,3,09,30,77,060,*45
$GLGSV,2,1,08,70,33,320,32,80,35,209,20,79,77,045,20,78,29,033,*67
$GLGSV,2,2,08,86,04,329,,69,81,078,,87,00,000,,68,29,129,*66
$GPGSA,A,1,,,,,,,,,,,,,,,*1E
$GPVTG,,T,,M,,N,,K,N*2C
$GPRMC,,V,,,,,,,,,,N*53
$GPGGA,,,,,,0,,,,,,,,*66
$GPGSA,A,1,,,,,,,,,,,,,,,*1E
$GPVTG,,T,,M,,N,,K,N*2C
$GPRMC,,V,,,,,,,,,,N*53
$GPGGA,,,,,,0,,,,,,,,*66
$GPGSV,3,3,09,30,77,060,*45
$GLGSV,2,1,08,70,33,320,32,80,35,209,20,79,77,045,20,78,29,033,*67
$GLGSV,2,2,08,86,04,329,,69,81,078,,87,00,000,,68,29,129,*66
$GPGSA,A,1,,,,,,,,,,,,,,,*1E
$GPVTG,,T,,M,,N,,K,N*2C
$GPRMC,,V,,,,,,,,,,N*53
$GPGGA,,,,,,0,,,,,,,,*66
$GPGSA,A,1,,,,,,,,,,,,,,,*1E
$GPVTG,,T,,M,,N,,K,N*2C
$GPRMC,,V,,,,,,,,,,N*53
$GPGGA,,,,,,0,,,,,,,,*66
$GPGSV,3,1,09,02,12,223,25,07,43,050,22,13,36,288,33,20,20,312,24*71
$GPGSV,3,1,09,02,12,223,25,07,43,050,22,13,36,288,33,20,20,312,24*71
$GPGSV,3,2,09,05,65,272,,09,17,094,,15,02,285,,28,30,147,*70
$GPGSV,3,2,09,05,65,272,,09,17,094,,15,02,285,,28,30,147,*70
$GPGSV,3,3,09,30,77,060,*45
$GLGSV,2,1,08,78,29,033,18,70,33,320,30,80,35,209,20,79,77,045,20*6C
$GLGSV,2,2,08,68,29,129,18,86,04,329,,69,81,078,,87,00,000,*6F
$GPGSA,A,1,,,,,,,,,,,,,,,*1E
$GPVTG,,T,,M,,N,,K,N*2C
$GPRMC,,V,,,,,,,,,,N*53
$GPGGA,,,,,,0,,,,,,,,*66
$GPGSV,3,3,09,30,77,060,*45
$GLGSV,2,1,08,78,29,033,18,70,33,320,30,80,35,209,20,79,77,045,20*6C
$GLGSV,2,2,08,68,29,129,18,86,04,329,,69,81,078,,87,00,000,*6F
$GPGSA,A,1,,,,,,,,,,,,,,,*1E
$GPVTG,,T,,M,,N,,K,N*2C
$GPRMC,,V,,,,,,,,,,N*53
$GPGGA,,,,,,0,,,,,,,,*66
$GPGSA,A,2,07,20,,,,,,,,,,,0.0,0.0,24.4*04
$GPGSA,A,2,07,20,,,,,,,,,,,0.0,0.0,24.4*04
$GPVTG,0.4,T,0.4,M,209.9,N,388.8,K,D*2F
$GPVTG,0.4,T,0.4,M,209.9,N,388.8,K,D*2F
$GPRMC,152700,A,4338.216196,N,00707.670372,E,209.9,0.4,060116,20.0,E,D*2B
$GPRMC,152700,A,4338.216196,N,00707.670372,E,209.9,0.4,060116,20.0,E,D*2B
$GPGGA,152700,4338.216196,N,00707.670372,E,2,02,0.0,288.0,M,-194.9,M,,*58
$GPGGA,152700,4338.216196,N,00707.670372,E,2,02,0.0,288.0,M,-194.9,M,,*58
$GPGSA,A,1,,,,,,,,,,,,,,,*1E
$GPGSA,A,1,,,,,,,,,,,,,,,*1E
$GPVTG,,T,,M,,N,,K,N*2C
$GPVTG,,T,,M,,N,,K,N*2C
$GPRMC,,V,,,,,,,,,,N*53
$GPRMC,,V,,,,,,,,,,N*53
$GPGGA,,,,,,0,,,,,,,,*66
$GPGGA,,,,,,0,,,,,,,,*66
$GPGSA,A,1,,,,,,,,,,,,,,,*1E
$GPGSA,A,1,,,,,,,,,,,,,,,*1E
$GPVTG,,T,,M,,N,,K,N*2C
$GPRMC,,V,,,,,,,,,,N*53
$GPGGA,,,,,,0,,,,,,,,*66
$GPVTG,,T,,M,,N,,K,N*2C
$GPRMC,,V,,,,,,,,,,N*53
$GPGGA,,,,,,0,,,,,,,,*66
$GPGSV,3,1,09,13,37,288,32,02,12,223,,05,65,272,,07,43,050,*71
$GPGSV,3,1,09,13,37,288,32,02,12,223,,05,65,272,,07,43,050,*71
$GPGSV,3,2,09,09,17,094,,15,02,285,,20,20,312,,28,31,147,*70
$GPGSV,3,2,09,09,17,094,,15,02,285,,20,20,312,,28,31,147,*70
$GPGSV,3,3,09,30,77,060,*45
$GPGSV,3,3,09,30,77,060,*45
$GLGSV,2,1,08,70,33,320,30,78,29,033,,86,04,329,,80,35,209,*68
$GLGSV,2,1,08,70,33,320,30,78,29,033,,86,04,329,,80,35,209,*68
$GLGSV,2,2,08,79,76,043,,69,81,078,,87,00,000,,68,29,130,*64
$GLGSV,2,2,08,79,76,043,,69,81,078,,87,00,000,,68,29,130,*64
$GPGSA,A,1,,,,,,,,,,,,,,,*1E
$GPGSA,A,1,,,,,,,,,,,,,,,*1E
$GPVTG,,T,,M,,N,,K,N*2C
$GPVTG,,T,,M,,N,,K,N*2C
$GPRMC,,V,,,,,,,,,,N*53
$GPRMC,,V,,,,,,,,,,N*53
$GPGGA,,,,,,0,,,,,,,,*66
$GPGGA,,,,,,0,,,,,,,,*66
$GPGSA,A,1,,,,,,,,,,,,,,,*1E
$GPGSA,A,1,,,,,,,,,,,,,,,*1E
$GPVTG,,T,,M,,N,,K,N*2C
$GPRMC,,V,,,,,,,,,,N*53
$GPGGA,,,,,,0,,,,,,,,*66
$GPGSV,3,1,09,13,37,288,32,02,12,223,,05,65,272,,07,43,050,*71
$GPGSV,3,2,09,09,17,094,,15,02,285,,20,20,312,,28,31,147,*70
$GPGSV,3,3,09,30,77,060,*45
$GLGSV,2,1,08,70,33,320,30,78,29,033,,86,04,329,,80,35,209,*68
$GLGSV,2,2,08,79,76,043,,69,81,078,,87,00,000,,68,29,130,*64
$GPGSA,A,1,,,,,,,,,,,,,,,*1E
$GPVTG,,T,,M,,N,,K,N*2C
$GPRMC,,V,,,,,,,,,,N*53
$GPGGA,,,,,,0,,,,,,,,*66
$GPGSA,A,1,,,,,,,,,,,,,,,*1E
$GPVTG,,T,,M,,N,,K,N*2C
$GPRMC,,V,,,,,,,,,,N*53
$GPVTG,,T,,M,,N,,K,N*2C
$GPRMC,,V,,,,,,,,,,N*53
$GPGGA,,,,,,0,,,,,,,,*66
$GPGSV,3,1,09,13,37,288,32,02,12,223,,05,65,272,,07,43,050,*71
$GPGSV,3,2,09,09,17,094,,15,02,285,,20,20,312,,28,31,147,*70
$GPGSV,3,3,09,30,77,060,*45
$GLGSV,2,1,08,70,33,320,30,78,29,033,,86,04,329,,80,35,209,*68
$GLGSV,2,2,08,79,76,043,,69,81,078,,87,00,000,,68,29,130,*64
$GPGSA,A,1,,,,,,,,,,,,,,,*1E
$GPVTG,,T,,M,,N,,K,N*2C
$GPRMC,,V,,,,,,,,,,N*53
$GPGGA,,,,,,0,,,,,,,,*66
$GPGSA,A,1,,,,,,,,,,,,,,,*1E
$GPVTG,,T,,M,,N,,K,N*2C
$GPRMC,,V,,,,,,,,,,N*53
$GPGGA,,,,,,0,,,,,,,,*66
$GPGGA,,,,,,0,,,,,,,,*66
$GPGSA,A,1,,,,,,,,,,,,,,,*1E
$GPGSA,A,1,,,,,,,,,,,,,,,*1E
$GPVTG,,T,,M,,N,,K,N*2C
$GPVTG,,T,,M,,N,,K,N*2C
$GPRMC,,V,,,,,,,,,,N*53
$GPRMC,,V,,,,,,,,,,N*53
$GPGGA,,,,,,0,,,,,,,,*66
$GPGGA,,,,,,0,,,,,,,,*66
$GPGSA,A,1,,,,,,,,,,,,,,,*1E
$GPGSA,A,1,,,,,,,,,,,,,,,*1E
$GPVTG,,T,,M,,N,,K,N*2C
$GPVTG,,T,,M,,N,,K,N*2C
$GPRMC,,V,,,,,,,,,,N*53
$GPRMC,,V,,,,,,,,,,N*53
$GPGGA,,,,,,0,,,,,,,,*66
$GPGGA,,,,,,0,,,,,,,,*66
$GPGSV,3,1,09,02,12,223,,05,65,271,,07,43,050,,09,17,094,*75
$GPGSV,3,1,09,02,12,223,,05,65,271,,07,43,050,,09,17,094,*75
$GPGSV,3,2,09,13,37,288,,15,02,285,,20,20,312,,28,31,147,*76
$GPGSV,3,2,09,13,37,288,,15,02,285,,20,20,312,,28,31,147,*76
$GPGSV,3,3,09,30,77,059,*4F
$GPGSV,3,3,09,30,77,059,*4F
$GLGSV,2,1,08,78,29,033,,70,33,320,,86,04,329,,80,35,209,*6B
$GLGSV,2,2,08,79,76,043,,69,80,080,,87,00,000,,68,29,130,*62
$GPGSA,A,1,,,,,,,,,,,,,,,*1E
$GPVTG,,T,,M,,N,,K,N*2C
$GPRMC,,V,,,,,,,,,,N*53
$GPGGA,,,,,,0,,,,,,,,*66
$GPGSA,A,1,,,,,,,,,,,,,,,*1E
$GPVTG,,T,,M,,N,,K,N*2C
$GPRMC,,V,,,,,,,,,,N*53
$GPGGA,,,,,,0,,,,,,,,*66
$GLGSV,2,1,08,78,29,033,,70,33,320,,86,04,329,,80,35,209,*6B
$GLGSV,2,2,08,79,76,043,,69,80,080,,87,00,000,,68,29,130,*62
$GPGSA,A,1,,,,,,,,,,,,,,,*1E
$GPVTG,,T,,M,,N,,K,N*2C
$GPRMC,,V,,,,,,,,,,N*53
$GPGGA,,,,,,0,,,,,,,,*66
$GPGSA,A,1,,,,,,,,,,,,,,,*1E
$GPVTG,,T,,M,,N,,K,N*2C
$GPRMC,,V,,,,,,,,,,N*53
$GPGGA,,,,,,0,,,,,,,,*66
$GPGSA,A,1,,,,,,,,,,,,,,,*1E
$GPGSA,A,1,,,,,,,,,,,,,,,*1E
$GPVTG,,T,,M,,N,,K,N*2C
$GPVTG,,T,,M,,N,,K,N*2C
$GPRMC,,V,,,,,,,,,,N*53
$GPGGA,,,,,,0,,,,,,,,*66
$GPRMC,,V,,,,,,,,,,N*53
$GPGGA,,,,,,0,,,,,,,,*66
$GPGSA,A,1,,,,,,,,,,,,,,,*1E
$GPGSA,A,1,,,,,,,,,,,,,,,*1E
$GPVTG,,T,,M,,N,,K,N*2C
$GPVTG,,T,,M,,N,,K,N*2C
$GPRMC,,V,,,,,,,,,,N*53
$GPRMC,,V,,,,,,,,,,N*53
$GPGGA,,,,,,0,,,,,,,,*66
$GPGGA,,,,,,0,,,,,,,,*66
$GPGSV,3,1,09,02,12,223,,05,65,271,,07,43,050,,09,17,094,*75
$GPGSV,3,2,09,13,37,289,,15,02,285,,20,20,312,,28,31,147,*77
$GPGSV,3,1,09,02,12,223,,05,65,271,,07,43,050,,09,17,094,*75
$GPGSV,3,2,09,13,37,289,,15,02,285,,20,20,312,,28,31,147,*77
$GPGSV,3,3,09,30,77,059,*4F
$GLGSV,2,1,08,78,28,033,,70,33,320,,86,04,329,,80,35,209,*6A
$GLGSV,2,2,08,79,76,043,,69,80,081,,87,00,000,,68,28,130,*62
$GPGSA,A,1,,,,,,,,,,,,,,,*1E
$GPVTG,,T,,M,,N,,K,N*2C
$GPRMC,,V,,,,,,,,,,N*53
$GPGGA,,,,,,0,,,,,,,,*66
$GPGSA,A,1,,,,,,,,,,,,,,,*1E
$GPGSV,3,3,09,30,77,059,*4F
$GLGSV,2,1,08,78,28,033,,70,33,320,,86,04,329,,80,35,209,*6A
$GLGSV,2,2,08,79,76,043,,69,80,081,,87,00,000,,68,28,130,*62
$GPGSA,A,1,,,,,,,,,,,,,,,*1E
$GPVTG,,T,,M,,N,,K,N*2C
$GPRMC,,V,,,,,,,,,,N*53
$GPGGA,,,,,,0,,,,,,,,*66
$GPGSA,A,1,,,,,,,,,,,,,,,*1E
$GPVTG,,T,,M,,N,,K,N*2C
$GPRMC,,V,,,,,,,,,,N*53
$GPGGA,,,,,,0,,,,,,,,*66
$GPVTG,,T,,M,,N,,K,N*2C
$GPRMC,,V,,,,,,,,,,N*53
$GPGGA,,,,,,0,,,,,,,,*66
$GPGSV,3,1,09,05,65,271,23,13,37,289,33,02,12,223,,07,43,050,*73
$GPGSV,3,2,09,09,17,094,,15,02,285,,20,20,312,,28,31,147,*70
$GPGSV,3,3,09,30,77,059,*4F
$GLGSV,2,1,08,70,33,320,30,79,76,043,20,78,28,033,,86,04,329,*66
$GLGSV,2,2,08,80,35,209,,69,80,081,,87,00,000,,68,28,130,*6F
$GPGSA,A,1,,,,,,,,,,,,,,,*1E
$GPVTG,,T,,M,,N,,K,N*2C
$GPRMC,,V,,,,,,,,,,N*53
$GPGGA,,,,,,0,,,,,,,,*66
$GPGSV,3,1,09,05,65,271,23,13,37,289,33,02,12,223,,07,43,050,*73
$GPGSV,3,2,09,09,17,094,,15,02,285,,20,20,312,,28,31,147,*70
$GPGSV,3,3,09,30,77,059,*4F
$GLGSV,2,1,08,70,33,320,30,79,76,043,20,78,28,033,,86,04,329,*66
$GLGSV,2,2,08,80,35,209,,69,80,081,,87,00,000,,68,28,130,*6F
$GPGSA,A,1,,,,,,,,,,,,,,,*1E
$GPVTG,,T,,M,,N,,K,N*2C
$GPRMC,,V,,,,,,,,,,N*53
$GPGGA,,,,,,0,,,,,,,,*66
$GPGSA,A,1,,,,,,,,,,,,,,,*1E
$GPGSA,A,1,,,,,,,,,,,,,,,*1E
$GPVTG,,T,,M,,N,,K,N*2C
$GPVTG,,T,,M,,N,,K,N*2C
$GPRMC,,V,,,,,,,,,,N*53
$GPRMC,,V,,,,,,,,,,N*53
$GPGGA,,,,,,0,,,,,,,,*66
$GPGGA,,,,,,0,,,,,,,,*66
$GPGSA,A,1,,,,,,,,,,,,,,,*1E
$GPGSA,A,1,,,,,,,,,,,,,,,*1E
$GPVTG,,T,,M,,N,,K,N*2C
$GPVTG,,T,,M,,N,,K,N*2C
$GPRMC,,V,,,,,,,,,,N*53
$GPGGA,,,,,,0,,,,,,,,*66
$GPRMC,,V,,,,,,,,,,N*53
$GPGGA,,,,,,0,,,,,,,,*66
$GPGSA,A,1,,,,,,,,,,,,,,,*1E
$GPGSA,A,1,,,,,,,,,,,,,,,*1E
$GPVTG,,T,,M,,N,,K,N*2C
$GPRMC,,V,,,,,,,,,,N*53
$GPGGA,,,,,,0,,,,,,,,*66
$GPVTG,,T,,M,,N,,K,N*2C
$GPRMC,,V,,,,,,,,,,N*53
$GPGGA,,,,,,0,,,,,,,,*66
$GPGSV,3,1,09,13,37,289,33,02,12,223,,05,65,271,,07,43,050,*72
$GPGSV,3,1,09,13,37,289,33,02,12,223,,05,65,271,,07,43,050,*72
$GPGSV,3,2,09,09,17,094,,15,02,285,,20,20,312,,28,31,147,*70
$GPGSV,3,2,09,09,17,094,,15,02,285,,20,20,312,,28,31,147,*70
$GPGSV,3,3,09,30,76,059,*4E
$GPGSV,3,3,09,30,76,059,*4E
$GLGSV,2,1,08,70,33,320,33,68,28,130,27,78,28,033,,86,04,327,*62
$GLGSV,2,1,08,70,33,320,33,68,28,130,27,78,28,033,,86,04,327,*62
$GLGSV,2,2,08,80,35,209,,79,76,043,,69,80,081,,87,00,000,*61
$GLGSV,2,2,08,80,35,209,,79,76,043,,69,80,081,,87,00,000,*61
$GPGSA,A,1,,,,,,,,,,,,,,,*1E
$GPGSA,A,1,,,,,,,,,,,,,,,*1E
$GPVTG,,T,,M,,N,,K,N*2C
$GPVTG,,T,,M,,N,,K,N*2C
$GPRMC,,V,,,,,,,,,,N*53
$GPRMC,,V,,,,,,,,,,N*53
$GPGGA,,,,,,0,,,,,,,,*66
$GPGGA,,,,,,0,,,,,,,,*66
$GPGSA,A,1,,,,,,,,,,,,,,,*1E
$GPGSA,A,1,,,,,,,,,,,,,,,*1E
$GPVTG,,T,,M,,N,,K,N*2C
$GPVTG,,T,,M,,N,,K,N*2C
$GPRMC,,V,,,,,,,,,,N*53
$GPRMC,,V,,,,,,,,,,N*53
$GPGGA,,,,,,0,,,,,,,,*66
$GPGSV,3,1,09,13,37,289,33,02,12,223,,05,65,271,,07,43,050,*72
$GPGSV,3,2,09,09,17,094,,15,02,285,,20,20,312,,28,31,147,*70
$GPGSV,3,3,09,30,76,059,*4E
$GLGSV,2,1,08,70,33,320,33,68,28,130,27,78,28,033,,86,04,327,*62
$GLGSV,2,2,08,80,35,209,,79,76,043,,69,80,081,,87,00,000,*61
$GPGSA,A,1,,,,,,,,,,,,,,,*1E
$GPGGA,,,,,,0,,,,,,,,*66
$GPGSV,3,1,09,13,37,289,33,02,12,223,,05,65,271,,07,43,050,*72
$GPGSV,3,2,09,09,17,094,,15,02,285,,20,20,312,,28,31,147,*70
$GPGSV,3,3,09,30,76,059,*4E
$GLGSV,2,1,08,70,33,320,33,68,28,130,27,78,28,033,,86,04,327,*62
$GLGSV,2,2,08,80,35,209,,79,76,043,,69,80,081,,87,00,000,*61
$GPGSA,A,1,,,,,,,,,,,,,,,*1E
$GPVTG,,T,,M,,N,,K,N*2C
$GPRMC,,V,,,,,,,,,,N*53
$GPGGA,,,,,,0,,,,,,,,*66
$GPGSA,A,1,,,,,,,,,,,,,,,*1E
$GPVTG,,T,,M,,N,,K,N*2C
$GPRMC,,V,,,,,,,,,,N*53
$GPGGA,,,,,,0,,,,,,,,*66
$GPVTG,,T,,M,,N,,K,N*2C
$GPRMC,,V,,,,,,,,,,N*53
$GPGGA,,,,,,0,,,,,,,,*66
$GPGSA,A,1,,,,,,,,,,,,,,,*1E
$GPVTG,,T,,M,,N,,K,N*2C
$GPRMC,,V,,,,,,,,,,N*53
$GPGGA,,,,,,0,,,,,,,,*66
$GPGSA,A,1,,,,,,,,,,,,,,,*1E
$GPGSA,A,1,,,,,,,,,,,,,,,*1E
